stop_id,stop_code,stop_name,stop_desc,stop_lat,stop_lon,zone_id,stop_url,location_type,parent_station,wheelchair_boarding,stop_direction
STOP_14877,,El Caminero,"<div dir=""ltr"">Estación de <b>Metrobús</b>. <font color=""#cc0000""><b>Lþnea 1<",19.279392,-99.169174,,,0,,0,
STOP_14878,,La Joya,"Estación de <b>Metrobús</b>. <font color=""#cc0000""><b>Lþnea 1<br><br><img src",19.280359,-99.170097,,,0,,0,
STOP_14879,,Santa Úrsula,"Estación de <b>Metrobús</b>. <font color=""#cc0000""><b>Lþnea 1<br><br><img src",19.283764,-99.175598,,,0,,0,
STOP_14880,,Fuentes Brotantes,"Estación de <b>Metrobús</b>. <font color=""#cc0000""><b>Lþnea 1<br><br><img src",19.28838,-99.174461,,,0,,0,
STOP_14881,,Ayuntamiento,"Estación de <b>Metrobús</b>. <font color=""#cc0000""><b>Lþnea 1<br><br><img src",19.292501,-99.177399,,,0,,0,
STOP_14882,,Corregidora,"Estación de <b>Metrobús</b>. <font color=""#cc0000""><b>Lþnea 1<br><br><img src",19.294146,-99.181252,,,0,,0,
STOP_14883,,Villa Olþmpica,"Estación de <b>Metrobús</b>. <font color=""#cc0000""><b>Lþnea 1<br><br><img src",19.299402,-99.185509,,,0,,0,
STOP_14884,,Perisur,"Estación de <b>Metrobús</b>. <font color=""#cc0000""><b>Lþnea 1<br><br><img src",19.304468,-99.186066,,,0,,0,
STOP_14885,,CCU,"Estación de <b>Metrobús</b>. <font color=""#cc0000""><b>Lþnea 1<br><br><img src",19.314615,-99.187408,,,0,,0,
STOP_14886,,Ciudad Universitaria,"Estación de <b>Metrobús</b>. <font color=""#cc0000""><b>Lþnea 1<br><br><img src",19.322798,-99.188431,,,0,,0,
STOP_14887,,Dr. Gálvez,"Estación de <b>Metrobús</b>. <font color=""#cc0000""><b>Lþnea 1<br><br><img src",19.340818,-99.18998,,,0,,0,
STOP_14888,,Bombilla,"Estación de <b>Metrobús</b>. <font color=""#cc0000""><b>Lþnea 1<br><br><img src",19.346811,-99.187912,,,0,,0,
STOP_14889,,Altavista,"Estación de <b>Metrobús</b>. <font color=""#cc0000""><b>Lþnea 1<br><br><img src",19.351315,-99.18663,,,0,,0,
STOP_14890,,Olivo,"Estación de <b>Metrobús</b>. <font color=""#cc0000""><b>Lþnea 1<br><br><img src",19.354715,-99.185272,,,0,,0,
STOP_14891,,Francia,"Estación de <b>Metrobús</b>. <font color=""#cc0000""><b>Lþnea 1<br></b><br><img",19.35836,-99.184044,,,0,,0,
STOP_14892,,José Marþa Velasco,"Estación de <b>Metrobús</b>. <font color=""#cc0000""><b>Lþnea 1<br><br><img src",19.361984,-99.182716,,,0,,0,
STOP_14893,,Teatro de los Insurgentes,"Estación de <b>Metrobús</b>. <font color=""#cc0000""><b>Lþnea 1<br><br><img src",19.365011,-99.181747,,,0,,0,
STOP_14894,,Rþo Churubusco,"Estación de <b>Metrobús</b>. <font color=""#cc0000""><b>Lþnea 1<br><br><img src",19.36908,-99.180443,,,0,,0,
STOP_14895,,Felix Cuevas,"Estación de <b>Metrobús</b>. <font color=""#cc0000""><b>Lþnea 1<br><br><img src",19.374292,-99.178757,,,0,,0,
STOP_14896,,Parque Hundido,"Estación de <b>Metrobús</b>. <font color=""#cc0000""><b>Lþnea 1<br><br><img src",19.379322,-99.177284,,,0,,0,
STOP_14897,,Ciudad de los Deportes,"Estación de <b>Metrobús</b>. <font color=""#cc0000""><b>Lþnea 1<br><br><img src",19.382601,-99.176041,,,0,,0,
STOP_14898,,Colonia del Valle,"Estación de <b>Metrobús</b>. <font color=""#cc0000""><b>Lþnea 1<br><br><img src",19.385506,-99.175278,,,0,,0,
STOP_14899,,Nápoles,"Estación de <b>Metrobús</b>. <font color=""#cc0000""><b>Lþnea 1<br><br><img src",19.389858,-99.173683,,,0,,0,
STOP_14900,,Poliforum,"Estación de <b>Metrobús</b>. <font color=""#cc0000""><b>Lþnea 1<br><br><img src",19.393623,-99.172462,,,0,,0,
STOP_14901,,La Piedad,"Estación de <b>Metrobús</b>. <font color=""#cc0000""><b>Lþnea 1<br><br><img src",19.397873,-99.171303,,,0,,0,
STOP_14902,,Nuevo León,"Estación de <b>Metrobús</b>. <font color=""#cc0000""><b>Lþnea 1<br><br><img src",19.401871,-99.16996,,,0,,0,
STOP_14903,,Chilpancingo,"Estación de <b>Metrobús</b>. <font color=""#cc0000""><b>Lþnea 1<br><br><img src",19.406485,-99.168503,,,0,,0,
STOP_14904,,Campeche,"Estación de <b>Metrobús</b>. <font color=""#cc0000""><b>Lþnea 1<br><br><img src",19.409693,-99.16732,,,0,,0,
STOP_14905,,Sonora,"Estación de <b>Metrobús</b>. <font color=""#cc0000""><b>Lþnea 1<br><br><img src",19.413143,-99.166245,,,0,,0,
STOP_14906,,Álvaro Obregón,"Estación de <b>Metrobús</b>. <font color=""#cc0000""><b>Lþnea 1<br><br><img src",19.416866,-99.164856,,,0,,0,
STOP_14907,,Durango,"Estación de <b>Metrobús</b>. <font color=""#cc0000""><b>Lþnea 1<br><br><img src",19.419903,-99.16404,,,0,,0,
STOP_14908,,Glorieta Insurgentes,"Estación de <b>Metrobús</b>. <font color=""#cc0000""><b>Lþnea 1</b><font color=",19.423423511951114,-99.16246891021729,,,0,,0,
STOP_14909,,Hamburgo,"Estación de <b>Metrobús</b>. <font color=""#cc0000""><b>Lþnea 1</b><font color=",19.427805,-99.161057,,,0,,0,
STOP_14910,,Reforma,"Estación de <b>Metrobús</b>. <font color=""#cc0000""><b>Lþnea 1<br><br><img src",19.433065,-99.158806,,,0,,0,
STOP_14911,,Revolución,"Estación de <b>Metrobús</b>. <font color=""#cc0000""><b>Lþnea 1<br><br><img src",19.440411,-99.15554,,,0,,0,
STOP_14912,,Plaza de la República,"Estación de <b>Metrobús</b>. <font color=""#cc0000""><b>Lþnea 1<br><br><img src",19.436152,-99.157227,,,0,,0,
STOP_14913,,El Chopo,"Estación de <b>Metrobús</b>. <font color=""#cc0000""><b>Lþnea 1<br><br><img src",19.443102,-99.154594,,,0,,0,
STOP_14914,,Buenavista. Lþnea 1.,"Estación de <b>Metrobús</b>. <font color=""#cc0000""><b>Lþnea 1<br><br><img src",19.446957,-99.15303,,,0,,0,
STOP_14915,,Manuel González,"Estación de <b>Metrobús</b>. <font color=""#cc0000""><b>Lþnea 1<br><br><img src",19.456881,-99.149155,,,0,,0,
STOP_14916,,San Simón,"Estación de <b>Metrobús</b>. <font color=""#cc0000""><b>Lþnea 1<br><br><img src",19.459663,-99.146515,,,0,,0,
STOP_14917,,Circuito,"Estación de <b>Metrobús</b>. <font color=""#cc0000""><b>Lþnea 1<br><br><img src",19.462444,-99.144035,,,0,,0,
STOP_14918,,La Raza. Lþnea 1.,"Estación de <b>Metrobús</b>. <font color=""#cc0000""><b>Lþnea 1<br><br><img src",19.468838,-99.138802,,,0,,0,
STOP_14919,,Potrero cuerpo poniente,"Estación de <b>Metrobús</b>. <font color=""#cc0000""><b>Lþnea 1<br><br><img src",19.476616,-99.132477,,,0,,0,
STOP_14920,,Euzkaro cuerpo poniente,"Estación de <b>Metrobús</b>. <font color=""#cc0000""><b>Lþnea 1<br><br><img src",19.482473,-99.127739,,,0,,0,
STOP_14921,,Deportivo 18 de Marzo cuerpo oriente,"Estación de <b>Metrobús</b>. <font color=""#cc0000""><b>Lþnea 1<br><br><img src",19.486366,-99.124329,,,0,,0,
STOP_14922,,Indios Verdes,"Terminal de <b>Metrobús</b>. <font color=""#cc0000""><b>Lþnea 1<br><br><img src=",19.496784,-99.119728,,,0,,0,
STOP_14923,,Glorieta Insurgentes,"Estación de <b>Metrobús</b>. <font color=""#cc0000""><b>Lþnea 1</b><font color=",19.424107,-99.163254,,,0,,0,
STOP_14924,,Terminal Tacubaya. Metrobús. Lþnea 2,"Estación de <b>Metrobús</b>. <font color=""#6600cc""><b>Lþnea 2</b>.</font><br>",19.40184,-99.186752,,,0,,0,
STOP_14925,,Parque Lira,"Estación de <b>Metrobús</b>. <font color=""#6600cc""><b>Lþnea 2</b>.</font><br>",19.407742,-99.189377,,,0,,0,
STOP_14926,,Antonio Maceo,"Estación de <b>Metrobús</b>. <font color=""#6600cc""><b>Lþnea 2</b>.</font><br>",19.404936,-99.18586,,,0,,0,
STOP_14927,,De La Salle,"Estación de <b>Metrobús</b>. <font color=""#6600cc""><b>Lþnea 2</b>.</font><br>",19.40766,-99.183746,,,0,,0,
STOP_14928,,Patriotismo,"Estación de <b>Metrobús</b>. <font color=""#6600cc""><b>Lþnea 2</b>.</font><br>",19.405586,-99.177582,,,0,,0,
STOP_14929,,Escandón,"Estación de <b>Metrobús</b>. <font color=""#6600cc""><b>Lþnea 2</b>.</font><br>",19.4044,-99.173973,,,0,,0,
STOP_14930,,Nuevo León,"Estación de <b>Metrobús</b>. <font color=""#6600cc""><b>Lþnea 2</b>.</font><br>",19.403549,-99.169624,,,0,,0,
STOP_14931,,Viaducto,"Estación de <b>Metrobús</b>. <font color=""#6600cc""><b>Lþnea 2</b>.</font><br>",19.401443,-99.168144,,,0,,0,
STOP_14932,,Amores,"Estación de <b>Metrobús</b>. <font color=""#6600cc""><b>Lþnea 2</b>.</font><br>",19.396929,-99.164116,,,0,,0,
STOP_14933,,Etiopþa. Lþnea 2,"Estación de <b>Metrobús</b>. <font color=""#6600cc""><b>Lþnea 2</b>.</font><br>",19.395868,-99.155685,,,0,,0,
STOP_14934,,Coyuya,"Estación de <b>Metrobús</b>. <font color=""#6600cc""><b>Lþnea 2</b>.</font><br>",19.398268,-99.11702,,,0,,0,
STOP_14935,,Alamos,"<div dir=""ltr"">Estación de <b>Metrobús</b>. <font color=""#6600cc""><b>Lþnea 2<",19.394604,-99.142555,,,0,,0,
STOP_14936,,Xola,"Estación de <b>Metrobús</b>. <font color=""#6600cc""><b>Lþnea 2</b>.</font><br>",19.394239,-99.139992,,,0,,0,
STOP_14937,,Las Americas,"Estación de <b>Metrobús</b>. <font color=""#6600cc""><b>Lþnea 2</b>.</font><br>",19.39348,-99.134842,,,0,,0,
STOP_14938,,Andres Molina,"Estación de <b>Metrobús</b>. <font color=""#6600cc""><b>Lþnea 2</b>.</font><br>",19.397833,-99.129143,,,0,,0,
STOP_14939,,La Viga,"Estación de <b>Metrobús</b>. <font color=""#6600cc""><b>Lþnea 2</b>.</font><br>",19.398054,-99.1241,,,0,,0,
STOP_14940,,Canela,"Estación de <b>Metrobús</b>. <font color=""#6600cc""><b>Lþnea 2</b>.</font><br>",19.397827,-99.109451,,,0,,0,
STOP_14941,,Goma,"Estación de <b>Metrobús</b>. <font color=""#6600cc""><b>Lþnea 2</b>.</font><br>",19.39687,-99.09948,,,0,,0,
STOP_14942,,Iztacalco,"Estación de <b>Metrobús</b>. <font color=""#6600cc""><b>Lþnea 2</b>.</font><br>",19.396507,-99.096107,,,0,,0,
STOP_14943,,UPIICSA,"Estación de <b>Metrobús</b>. <font color=""#6600cc""><b>Lþnea 2</b>.</font><br>",19.393915,-99.090385,,,0,,0,
STOP_14944,,El Rodeo,"Estación de <b>Metrobús</b>. <font color=""#6600cc""><b>Lþnea 2</b>.</font><br>",19.391872,-99.087463,,,0,,0,
STOP_14945,,Rio Tecolutla,"Estación de <b>Metrobús</b>. <font color=""#6600cc""><b>Lþnea 2</b>.</font><br>",19.388918,-99.083008,,,0,,0,
STOP_14946,,Rio Mayo,"Estación de <b>Metrobús</b>. <font color=""#6600cc""><b>Lþnea 2</b>.</font><br>",19.387106,-99.080261,,,0,,0,
STOP_14947,,Rojo Gomez,"Estación de <b>Metrobús</b>. <font color=""#6600cc""><b>Lþnea 2</b>.</font><br>",19.38422,-99.07608,,,0,,0,
STOP_14948,,Leyes de Reforma,"Estación de <b>Metrobús</b>. <font color=""#6600cc""><b>Lþnea 2</b>.</font><br>",19.383402,-99.065933,,,0,,0,
STOP_14949,,CCH Oriente,"Estación de <b>Metrobús</b>. <font color=""#6600cc""><b>Lþnea 2</b>.</font><br>",19.382845,-99.060692,,,0,,0,
STOP_14950,,Constitucion de Apatzingan,"Estación de <b>Metrobús</b>. <font color=""#6600cc""><b>Lþnea 2</b>.</font><br>",19.38921,-99.059868,,,0,,0,
STOP_14951,,General Antonio de León,"Estación de <b>Metrobús</b>. <font color=""#6600cc""><b>Lþnea 2</b>.</font><br>",19.38493,-99.051758,,,0,,0,
STOP_14952,,Tepalcates,"Estación de <b>Metrobús</b>. <font color=""#6600cc""><b>Lþnea 2</b>.</font><br>",19.390709,-99.047417,,,0,,0,
STOP_14953,,Canal de San Juan,"Estación de <b>Metrobús</b>. <font color=""#6600cc""><b>Lþnea 2</b>.</font><br>",19.396456,-99.056015,,,0,,0,
STOP_14954,,Rþo Frþo,"Estación de <b>Metrobús</b>. <font color=""#6600cc""><b>Lþnea 2</b>.</font><br>",19.387562,-99.074142,,,0,,0,
STOP_14955,,Del Moral,"Estación de <b>Metrobús</b>. <font color=""#6600cc""><b>Lþnea 2</b>.</font> <br",19.384201,-99.070885,,,0,,0,
STOP_14956,,Nicolás Bravo,"Estación de <b>Metrobús</b>. <font color=""#6600cc""><b>Lþnea 2</b>.</font><br>",19.393724,-99.051308,,,0,,0,
STOP_14957,,Centro SCOP,"Estación de <b>Metrobús</b>. <font color=""#6600cc""><b>Lþnea 2</b>.</font><br>",19.395208,-99.146416,,,0,,0,
STOP_14958,,Doctor Vértiz,"Estación de <b>Metrobús</b>. <font color=""#6600cc""><b>Lþnea 2</b>.</font><br>",19.395544,-99.151352,,,0,,0,
STOP_14959,,Tlacotal,"Estación de <b>Metrobús</b>. <font color=""#6600cc""><b>Lþnea 2</b>.</font><br>",19.397196,-99.103523,,,0,,0,
STOP_14960,,Terminal Etiopþa-Plaza de la Transparencia,"Estación de <b>Metrobús</b>. <font color=""#009900""><b>Lþnea 3</b></font>.<br>",19.396456,-99.156013,,,0,,0,
STOP_14961,,Obrero Mundial,"Estación de <b>Metrobús</b>. <font color=""#009900""><b>Lþnea 3</b></font>.<br>",19.40103,-99.15567,,,0,,0,
STOP_14962,,Centro Médico,"Estación de <b>Metrobús</b>. <font color=""#009900""><b>Lþnea 3</b></font>.<br>",19.406658,-99.155212,,,0,,0,
STOP_14963,,Dr. Márquez,"Estación de <b>Metrobús</b>. <font color=""#009900""><b>Lþnea 3</b></font>.<br>",19.411371,-99.154854,,,0,,0,
STOP_14964,,Hospital General,"<div dir=""ltr"">Estación de <b>Metrobús</b>. <b><font color=""#009900"">Lþnea 3<",19.414339,-99.154648,,,0,,0,
STOP_14965,,Jardþn Pushkin,"Estación de <b>Metrobús</b>. <font color=""#009900""><b>Lþnea 3</b></font>.<br>",19.420378,-99.154167,,,0,,0,
STOP_14966,,Cuauhtémoc,"Estación de <b>Metrobús</b>. <font color=""#009900""><b>Lþnea 3</b></font>.<br>",19.424829,-99.153824,,,0,,0,
STOP_14967,,Balderas,"Estación de <b>Metrobús</b>. <font color=""#009900""><b>Lþnea 3</b></font>.<br>",19.427725,-99.148819,,,0,,0,
STOP_14968,,Juárez. Lþnea 3,"Estación de <b>Metrobús</b>. <font color=""#009900""><b>Lþnea 3</b></font>.<br>",19.431389,-99.148079,,,0,,0,
STOP_14969,,Hidalgo,"Estación de <b>Metrobús</b>. <font color=""#009900""><b>Lþnea 3</b></font>.<br>",19.43594,-99.147194,,,0,,0,
STOP_14970,,Mina,"Estación de <b>Metrobús</b>. <font color=""#009900""><b>Lþnea 3</b></font>.<br>",19.440229,-99.148651,,,0,,0,
STOP_14971,,Guerrero,"Estación de <b>Metrobús</b>. <font color=""#009900""><b>Lþnea 3</b></font>.<br>",19.445732,-99.147278,,,0,,0,
STOP_14972,,Buenavista - Lþnea 3,"Estación de <b>Metrobús</b>. <font color=""#009900""><b>Lþnea 3</b></font>.<br>",19.446136,-99.152122,,,0,,0,
STOP_14973,,Ricardo Flores Magón,"Estación de <b>Metrobús</b>. <font color=""#009900""><b>Lþnea 3</b></font>.<br>",19.451923,-99.145882,,,0,,0,
STOP_14974,,Tlatelolco,"Estación de <b>Metrobús</b>. <font color=""#009900""><b>Lþnea 3</b></font>.<br>",19.455849,-99.145042,,,0,,0,
STOP_14975,,Tolnahuac,"Estación de <b>Metrobús</b>. <font color=""#009900""><b>Lþnea 3</b></font>.<br>",19.458822,-99.144379,,,0,,0,
STOP_14976,,Circuito. Lþnea 3,"Estación de <b>Metrobús</b>. <font color=""#009900""><b>Lþnea 3</b></font>.<br>",19.463369,-99.144173,,,0,,0,
STOP_14977,,Hospital La Raza,"Estación de <b>Metrobús</b>. <font color=""#009900""><b>Lþnea 3</b></font>.<br>",19.467674,-99.143768,,,0,,0,
STOP_14978,,La Raza,"Estación de <b>Metrobús</b>. <font color=""#009900""><b>Lþnea 3</b></font>.<br>",19.467573,-99.140831,,,0,,0,
STOP_14979,,Héroe de Nacozari,"<div dir=""ltr"">Estación de <b>Metrobús</b>. <font color=""#009900""><b>Lþnea 3<",19.470638,-99.144829,,,0,,0,
STOP_14980,,Cuitláhuac,"<div dir=""ltr"">Estación de <b>Metrobús</b>. <font color=""#009900""><b>Lþnea 3<",19.473673,-99.145981,,,0,,0,
STOP_14981,,Coltongo,"<div dir=""ltr"">Estación de <b>Metrobús</b>. <font color=""#009900""><b>Lþnea 3<",19.479326,-99.14817,,,0,,0,
STOP_14982,,Magdalena La Salinas,"Estación de <b>Metrobús</b>. <font color=""#009900""><b>Lþnea 3</b></font>.<br>",19.482725,-99.149414,,,0,,0,
STOP_14983,,Poniente 128,"Estación de <b>Metrobús</b>. <font color=""#009900""><b>Lþnea 3</b></font>.<br>",19.489119,-99.151787,,,0,,0,
STOP_14984,,Poniente 134,"Estación de <b>Metrobús</b>. <font color=""#009900""><b>Lþnea 3</b></font>.<br>",19.492285,-99.15303,,,0,,0,
STOP_14985,,Montevideo,"<div dir=""ltr"">Estación de <b>Metrobús</b>. <font color=""#009900""><b>Lþnea 3<",19.49548,-99.154198,,,0,,0,
STOP_14986,,Poniente 146,"Estación de <b>Metrobús</b>. <font color=""#009900""><b>Lþnea 3</b></font>.<br>",19.499525,-99.155724,,,0,,0,
STOP_14987,,La Patera,"Estación de <b>Metrobús</b>. <font color=""#009900""><b>Lþnea 3</b></font>.<br>",19.503313,-99.157166,,,0,,0,
STOP_14988,,Júpiter,"<div dir=""ltr"">Estación de <b>Metrobús</b>. <font color=""#009900""><b>Lþnea 3<",19.508324,-99.159142,,,0,,0,
STOP_14989,,Tres Anegas,"Estación de <b>Metrobús</b>. <font color=""#009900""><b>Lþnea 3</b></font>.<br>",19.515135,-99.161819,,,0,,0,
STOP_14990,,Progreso Nacional,"Estación de <b>Metrobús</b>. <font color=""#009900""><b>Lþnea 3</b></font>.<br>",19.519083,-99.163521,,,0,,0,
STOP_14991,,San José de la Escalera,"Estación de <b>Metrobús</b>. <font color=""#009900""><b>Lþnea 3</b></font>.<br>",19.522917,-99.165726,,,0,,0,
STOP_14992,,Metrobus Tenayuca,"Estación de <b>Metrobús</b>. <font color=""#009900""><b>Lþnea 3</b></font>.<br>",19.529634,-99.170013,,,0,,0,
STOP_14993,,Buenavista. Lþnea 4,"Terminal <font color=""#ff6600""><b>Lþnea 4</b></font> de Metrobús.<br><br><img",19.444862612590953,-99.1522228717804,,,0,,0,
STOP_14994,,Delegación Cuauhtémoc,"<div dir=""ltr"">Parada <b>Metrobús</b>. <font color=""#ff6600""><b>Lþnea 4</b></f",19.442595,-99.152412,,,0,,0,
STOP_14995,,Puente de Alvarado,"Parada <b>Metrobús</b>. <b><font color=""#ff6600"">Lþnea 4</font></b>. Ruta Sur",19.439026,-99.153267,,,0,,0,
STOP_14996,,Plaza de la República,"Parada <b>Metrobús</b>. <b><font color=""#ff6600"">Lþnea 4</font></b>. Ruta Sur.",19.436804,-99.154137,,,0,,0,
STOP_14997,,Glorieta de Colón,"Parada <b>Metrobús</b>. <font color=""#ff6600""><b>Lþnea 4</b></font>. Ruta Sur.",19.434158,-99.153534,,,0,,0,
STOP_14998,,Expo Reforma,"Parada <b>Metrobús</b>. <font color=""#ff6600""><b>Lþnea 4</b></font>. Ruta Sur.",19.433365,-99.151009,,,0,,0,
STOP_14999,,Vocacional 5,"Parada <b>Metrobús</b>. <font color=""#ff6600""><b>Lþnea 4</b></font>. Ruta Sur.",19.431589,-99.150215,,,0,,0,
STOP_15000,,Juárez_Metrobús_Lþnea 4,"Parada <b>Metrobús</b>. <font color=""#ff6600""><b>Lþnea 4</b></font>. Ruta Sur.",19.431305,-99.148384,,,0,,0,
STOP_15001,,Plaza San Juan,"Parada <b>Metrobús</b>. <font color=""#ff6600""><b>Lþnea 4</b></font>. Ruta Sur.",19.430607,-99.143547,,,0,,0,
STOP_15002,,Eje Central_Metrobús_Lþnea 4,"<div dir=""ltr"">Parada <b>Metrobús</b>. <font color=""#ff6600""><b>Lþnea 4</b></f",19.430334,-99.14193,,,0,,0,
STOP_15003,,El Salvador,"Parada <b>Metrobús</b>. <font color=""#ff6600""><b>Lþnea 4</b></font>. Ruta Sur.",19.429874,-99.138535,,,0,,0,
STOP_15004,,Isabel La Católica,"Parada <b>Metrobús</b>. <font color=""#ff6600""><b>Lþnea 4</b></font>. Ruta Sur.",19.429617,-99.137009,,,0,,0,
STOP_15005,,Museo de la Ciudad,"Parada <b>Metrobús</b>. <font color=""#ff6600""><b>Lþnea 4</b></font>. Ruta Sur.",19.429287,-99.133675,,,0,,0,
STOP_15006,,Pino Suárez,"Parada <b>Metrobús</b>. <font color=""#ff6600""><b>Lþnea 4</b></font>. Ruta Sur.",19.426737,-99.134079,,,0,,0,
STOP_15007,,Las Cruces Sur,"Parada <b>Metrobús</b>. <font color=""#ff6600""><b>Lþnea 4</b></font>. Ruta Sur.",19.426155,-99.129921,,,0,,0,
STOP_15008,,La Merced,"Parada <b>Metrobús</b>. <font color=""#ff6600""><b>Lþnea 4</b></font>. Ruta Sur.",19.425447,-99.125946,,,0,,0,
STOP_15009,,Circunvalación,"Parada <b>Metrobús</b>. <font color=""#ff6600""><b>Lþnea 4</b></font>. Ruta Sur.",19.428341,-99.125526,,,0,,0,
STOP_15010,,Mercado de Sonora,"Parada <b>Metrobús</b>. <font color=""#ff6600""><b>Lþnea 4</b></font>. Ruta Sur.",19.423182,-99.123917,,,0,,0,
STOP_15011,,Eduardo Molina,"Parada <b>Metrobús</b>. <font color=""#ff6600""><b>Lþnea 4</b></font>. Ruta Sur.",19.427177,-99.116226,,,0,,0,
STOP_15012,,Moctezuma,"Parada <b>Metrobús</b>. <font color=""#ff6600""><b>Lþnea 4</b></font>. Ruta Sur.",19.426893,-99.111977,,,0,,0,
STOP_15013,,Hospital Balbuena,"Parada <b>Metrobús</b>. <font color=""#ff6600""><b>Lþnea 4</b></font>. Ruta Sur.",19.425098,-99.11615,,,0,,0,
STOP_15014,,San Lázaro,"Terminal <b>Metrobús</b>. <font color=""#ff6600""><b>Lþnea 4</b></font>. Salidas",19.43091,-99.115173,,,0,,0,
STOP_15015,,Terminal San Lázaro,"Terminal <b>Metrobús</b>. <font color=""#ff6600""><b>Lþnea 4</b></font>. Salidas",19.431116,-99.115425,,,0,,0,
STOP_15016,,Museo San Carlos,"Parada <b>Metrobús</b>. <b><font color=""#ff6600"">Lþnea 4</font></b>. Ruta Nort",19.438274,-99.15078,,,0,,0,
STOP_15018,,Teatro Blanquita,"Parada <b>Metrobús</b>. <b><font color=""#ff6600"">Lþnea 4</font></b>. Ruta Nort",19.438637,-99.139977,,,0,,0,
STOP_15019,,República de Chile,"Parada <b>Metrobús</b>. <b><font color=""#ff6600"">Lþnea 4</font></b>. Ruta Nort",19.437965,-99.135895,,,0,,0,
STOP_15020,,República de Argentina,"Parada <b>Metrobús</b>. <b><font color=""#ff6600"">Lþnea 4</font></b>. Ruta Nort",19.437407,-99.131996,,,0,,0,
STOP_15021,,Teatro del Pueblo,"Parada <b>Metrobús</b>. <b><font color=""#ff6600"">Lþnea 4</font></b>. Ruta Nort",19.436769,-99.127625,,,0,,0,
STOP_15022,,Mixcalco,"Parada <b>Metrobús</b>. <b><font color=""#ff6600"">Lþnea 4</font></b>. Ruta Nort",19.436357,-99.123413,,,0,,0,
STOP_15023,,Ferrocarril de Cintura,"Parada <b>Metrobús</b>. <b><font color=""#ff6600"">Lþnea 4</font></b>. Ruta Nort",19.436001,-99.121613,,,0,,0,
STOP_15024,,Morelos,"Parada <b>Metrobús</b>. <b><font color=""#ff6600"">Lþnea 4</font></b>. Ruta Nort",19.435814,-99.119003,,,0,,0,
STOP_15025,,Archivo General de la Nación,"Parada <b>Metrobús</b>. <b><font color=""#ff6600"">Lþnea 4</font></b>. Ruta Nort",19.435364,-99.115173,,,0,,0,
STOP_15027,,Terminal 1,"Parada <b>Metrobús</b>. <b><font color=""#ff6600"">Lþnea 4</font></b>. Ruta Aero",19.435307,-99.083664,,,0,,0,
STOP_15028,,Terminal 2,"Parada <b>Metrobús</b>. <b><font color=""#ff6600"">Lþnea 4</font></b>. Ruta Nort",19.421476,-99.077248,,,0,,0,
STOP_15029,,Delegación Cuauhtémoc,"Parada <b>Metrobús</b>. <font color=""#ff6600""><b>Lþnea 4</b></font>. Ruta Sur",19.442137,-99.152451,,,0,,0,
STOP_15030,,Puente de Alvarado,"Parada <b>Metrobús</b>. <b><font color=""#ff6600"">Lþnea 4</font></b>. Ruta Sur",19.438641,-99.153458,,,0,,0,
STOP_15031,,Plaza de la República,"Parada <b>Metrobús</b>. <b><font color=""#ff6600"">Lþnea 4</font></b>. Ruta Sur",19.437128,-99.153984,,,0,,0,
STOP_15032,,Glorieta de Colón,"Parada <b>Metrobús</b>. <font color=""#ff6600""><b>Lþnea 4</b></font>. Ruta Sur.",19.435015,-99.153374,,,0,,0,
STOP_15033,,Expo Reforma,"Parada <b>Metrobús</b>. <font color=""#ff6600""><b>Lþnea 4</b></font>. Ruta Sur.",19.433105,-99.150627,,,0,,0,
STOP_15034,,Vocacional 5,"Parada <b>Metrobús</b>. <font color=""#ff6600""><b>Lþnea 4</b></font>. Ruta Sur.",19.431755,-99.150955,,,0,,0,
STOP_15035,,Juárez_Metrobús_Lþnea 4,"Parada <b>Metrobús</b>. <font color=""#ff6600""><b>Lþnea 4</b></font>. Ruta Sur.",19.431259,-99.147743,,,0,,0,
STOP_15036,,Plaza San Juan,"Parada <b>Metrobús</b>. <font color=""#ff6600""><b>Lþnea 4</b></font>. Ruta Sur.",19.430773,-99.144653,,,0,,0,
STOP_15037,,Eje Central_Metrobús_Lþnea 4,"Parada <b>Metrobús</b>. <font color=""#ff6600""><b>Lþnea 4</b></font>. Ruta Sur.",19.430304,-99.1408,,,0,,0,
STOP_15038,,El Salvador,"Parada <b>Metrobús</b>. <font color=""#ff6600""><b>Lþnea 4</b></font>. Ruta Sur.",19.430071,-99.13942,,,0,,0,
STOP_15039,,Isabel La Católica,"Parada <b>Metrobús</b>. <font color=""#ff6600""><b>Lþnea 4</b></font>. Ruta Sur.",19.429691,-99.136589,,,0,,0,
STOP_15040,,Museo de la Ciudad,"Parada <b>Metrobús</b>. <font color=""#ff6600""><b>Lþnea 4</b></font>. Ruta Sur.",19.429195,-99.134033,,,0,,0,
STOP_15041,,Las Cruces Norte,"Parada <b>Metrobús</b>. <font color=""#ff6600""><b>Lþnea 4</b></font>. Ruta Sur.",19.428699,-99.129272,,,0,,0,
STOP_15042,,Mercado de Sonora,"Parada <b>Metrobús</b>. <font color=""#ff6600""><b>Lþnea 4</b></font>. Ruta Sur.",19.423241,-99.123413,,,0,,0,
STOP_15043,,Cecilio Robelo,"Parada <b>Metrobús</b>. <font color=""#ff6600""><b>Lþnea 4</b></font>. Ruta Sur.",19.425175,-99.119873,,,0,,0,
STOP_15044,,Cecilio Robelo,"Parada <b>Metrobús</b>. <font color=""#ff6600""><b>Lþnea 4</b></font>. Ruta Sur.",19.425484,-99.119041,,,0,,0,
STOP_15045,,Archivo General de la Nación,"Parada <b>Metrobús</b>. <b><font color=""#ff6600"">Lþnea 4</font></b>. Ruta Nort",19.434969,-99.114616,,,0,,0,
STOP_15046,,Morelos,"Parada <b>Metrobús</b>. <b><font color=""#ff6600"">Lþnea 4</font></b>. Ruta Nort",19.435787,-99.118248,,,0,,0,
STOP_15047,,Ferrocarril de Cintura,"Parada <b>Metrobús</b>. <b><font color=""#ff6600"">Lþnea 4</font></b>. Ruta Nort",19.436142,-99.120811,,,0,,0,
STOP_15048,,Mixcalco,"Parada <b>Metrobús</b>. <b><font color=""#ff6600"">Lþnea 4</font></b>. Ruta Nort",19.436323,-99.124153,,,0,,0,
STOP_15049,,Teatro del Pueblo,"Parada <b>Metrobús</b>. <b><font color=""#ff6600"">Lþnea 4</font></b>. Ruta Nort",19.43685,-99.127045,,,0,,0,
STOP_15050,,República de Argentina,"Parada <b>Metrobús</b>. <b><font color=""#ff6600"">Lþnea 4</font></b>. Ruta Nort",19.437357,-99.131195,,,0,,0,
STOP_15051,,Teatro Blanquita,"Parada <b>Metrobús</b>. <b><font color=""#ff6600"">Lþnea 4</font></b>. Ruta Nort",19.438429,-99.139084,,,0,,0,
STOP_15052,,Bellas Artes,"Parada <b>Metrobús</b>. <b><font color=""#ff6600"">Lþnea 4</font></b>. Ruta Nort",19.436407,-99.141823,,,0,,0,
STOP_15053,,Hidalgo. Lþnea 4,"Parada <b>Metrobús</b>. <b><font color=""#ff6600"">Lþnea 4</font></b>. Ruta Nort",19.437281,-99.14621,,,0,,0,
STOP_15054,,Museo San Carlos,"Parada <b>Metrobús</b>. <b><font color=""#ff6600"">Lþnea 4</font></b>. Ruta Nort",19.438227,-99.150604,,,0,,0,
STOP_15055,,República de Chile,"Parada <b>Metrobús</b>. <b><font color=""#ff6600"">Lþnea 4</font></b>. Ruta Nort",19.437883,-99.135025,,,0,,0,
STOP_37541,,Potrero cuerpo oriente,,19.47655572545553,-99.1322672367096,,,0,,0,
STOP_37615,,Buenavista L4 Descenso,,19.445459507872492,-99.15223360061646,,,0,,0,
STOP_37650,,La Merced,,19.425062655892706,-99.12557244300842,,,0,,0,
STOP_38760,,Euzkaro cuerpo oriente,,19.48237169464062,-99.1276216506958,,,0,,0,
STOP_38762,,Deportivo 18 de Marzo cuerpo poniente,,19.486437691662218,-99.12451028823853,,,0,,0,
STOP_14050,,Revolución,2,19.43880248367949,-99.15389657020569,,,0,,0,
STOP_14051,,Morelos (B),B,19.438426,-99.11933,,,0,,0,
STOP_14052,,Gómez Farías,1,19.415852,-99.090205,,,0,,0,
STOP_14053,,Blvd. Puerto Aéreo,1,19.419588659989447,-99.0960681438446,,,0,,0,
STOP_14054,,Tacubaya (1),1,19.402689949726348,-99.18685555458069,,,0,,0,
STOP_14055,,Observatorio,1,19.397486,-99.200669,,,0,,0,
STOP_14056,,Viaducto,2,19.400746991446614,-99.13663387298584,,,0,,0,
STOP_14057,,Xola,2,19.39502929732389,-99.13758873939514,,,0,,0,
STOP_14058,,Centro Médico (3),3,19.407496647828875,-99.15531277656554,,,0,,0,
STOP_14059,,Etiopía,3,19.39604129321701,-99.15617108345032,,,0,,0,
STOP_14060,,Aragón,5,19.451013563787882,-99.09598231315613,,,0,,0,
STOP_14061,,Oceanía,5,19.444387,-99.086543,,,0,,0,
STOP_14062,,Tacubaya (7),7,19.400604,-99.186417,,,0,,0,
STOP_14063,,San Pedro de Los Pinos,7,19.39122413645402,-99.18572902679442,,,0,,0,
STOP_14064,,Santa Anita (8),8,19.403975122920443,-99.12136673927307,,,0,,0,
STOP_14065,,Coyuya,8,19.39769,-99.113413,,,0,,0,
STOP_14066,,Atlalilco 8,8,19.355708388319435,-99.10157203674316,,,0,,0,
STOP_14067,,Iztapalapa,8,19.35760127232583,-99.09341812133789,,,0,,0,
STOP_14068,,Puebla,9,19.40697044780287,-99.08233523368835,,,0,,0,
STOP_14069,,Ciudad Deportiva,9,19.40811391876628,-99.09135818481444,,,0,,0,
STOP_14070,,Agrícola Oriental,A,19.404045958942977,-99.06982541084288,,,0,,0,
STOP_14071,,Canal de San Juan,A,19.39821706307652,-99.05969738960266,,,0,,0,
STOP_14072,,Oceanía,B,19.445722545774256,-99.08683061599731,,,0,,0,
STOP_14073,,Romero Rubio,B,19.440481941064473,-99.09420132637024,,,0,,0,
STOP_14074,,Eugenia,3,19.386285390769533,-99.15724396705627,,,0,,0,
STOP_14075,,Copilco,3,19.335978573367058,-99.17657732963562,,,0,,0,
STOP_14076,,Universidad,3,19.324335952867504,-99.17407751083374,,,0,,0,
STOP_14077,,Zapata,3,19.370425741851967,-99.16457176208496,,,0,,0,
STOP_14078,,Coyoacán,3,19.361427462744572,-99.17056918144226,,,0,,0,
STOP_14079,,Mixcoac,7,19.375658483356883,-99.18747782707214,,,0,,0,
STOP_14080,,Barranca del Muerto,7,19.361488195201975,-99.18895840644836,,,0,,0,
STOP_14081,,Viveros,3,19.35376486958421,-99.17542934417725,,,0,,0,
STOP_14082,,Miguel Ángel de Quevedo,3,19.34651696012331,-99.1805362701416,,,0,,0,
STOP_14083,,División del Norte,3,19.378927596332435,-99.15950775146484,,,0,,0,
STOP_14084,,San Antonio,7,19.384817906726642,-99.18661952018738,,,0,,0,
STOP_14085,,Portales,2,19.36976784176392,-99.14130091667175,,,0,,0,
STOP_14086,,Ermita,2,19.361862711522754,-99.14263129234314,,,0,,0,
STOP_14087,,Aculco,8,19.372925737963993,-99.10739779472351,,,0,,0,
STOP_14088,,Escuadrón 201,8,19.364494423568246,-99.10931825637817,,,0,,0,
STOP_14089,,General Anaya,2,19.353198005591064,-99.14478778839111,,,0,,0,
STOP_14090,,Tasqueña,2,19.344006435966726,-99.14105415344238,,,0,,0,
STOP_14092,,Villa de Cortés,2,19.38746948894201,-99.13862943649292,,,0,,0,
STOP_14093,,Nativitas,2,19.37938304030191,-99.13987398147583,,,0,,0,
STOP_14094,,Iztacalco,8,19.388092,-99.112086,,,0,,0,
STOP_14095,,Apatlaco,8,19.378298,-99.10934,,,0,,0,
STOP_14096,,Cuauhtémoc,1,19.425396553557174,-99.15460467338562,,,0,,0,
STOP_14097,,Insurgentes,1,19.423595521659838,-99.16325211524963,,,0,,0,
STOP_14098,,San Cosme,2,19.44185786910601,-99.16094541549683,,,0,,0,
STOP_14099,,La Raza (3),3,19.469070518725275,-99.13904786109924,,,0,,0,
STOP_14100,,Tlatelolco,3,19.45520174250276,-99.14308190345764,,,0,,0,
STOP_14101,,Talismán,4,19.474158473909544,-99.1077947616577,,,0,,0,
STOP_14102,,Bondojito,4,19.464508419118317,-99.1117537021637,,,0,,0,
STOP_14103,,La Raza (5),5,19.468965,-99.136176,,,0,,0,
STOP_14104,,Misterios,5,19.462900020796873,-99.13051843643188,,,0,,0,
STOP_14105,,Norte 45,6,19.488238025890862,-99.1624903678894,,,0,,0,
STOP_14106,,Vallejo,6,19.490311419720594,-99.15479779243469,,,0,,0,
STOP_14107,,Refinería,7,19.469110980231587,-99.18985962867735,,,0,,0,
STOP_14108,,Tacuba (7),7,19.458383,-99.188501,,,0,,0,
STOP_14109,,Centro Médico (9),9,19.406363291811193,-99.15504455566406,,,0,,0,
STOP_14110,,Chilpancingo,9,19.405756133552956,-99.16830539703368,,,0,,0,
STOP_14111,,Panteones,2,19.458219,-99.20294,,,0,,0,
STOP_14112,,Tacuba (2),2,19.459136913333747,-99.18803572654724,,,0,,0,
STOP_14113,,San Joaquín,7,19.445530325811056,-99.19160842895508,,,0,,0,
STOP_14114,,Polanco,7,19.43337953881342,-99.19079303741455,,,0,,0,
STOP_14115,,Auditorio,7,19.425305490625824,-99.1917371749878,,,0,,0,
STOP_14116,,Constituyentes,7,19.411291309142605,-99.19138312339783,,,0,,0,
STOP_14117,,Cuatro Caminos,2,19.458454,-99.214643,,,0,,0,
STOP_14118,,Sevilla,1,19.42159210317424,-99.17063355445862,,,0,,0,
STOP_14119,,Chapultepec,1,19.420256477128603,-99.17658805847168,,,0,,0,
STOP_14120,,Juanacatlán,1,19.41290021880629,-99.18207049369812,,,0,,0,
STOP_14121,,Patriotismo,9,19.40559422430129,-99.1784656047821,,,0,,0,
STOP_14122,,Tacubaya (9),9,19.402477439794737,-99.18730616569519,,,0,,0,
STOP_14123,,Popotla,2,19.452611963592428,-99.17546153068542,,,0,,0,
STOP_14124,,Colegio Militar,2,19.448646284512794,-99.1712236404419,,,0,,0,
STOP_14125,,Cuitláhuac,2,19.45668,-99.181555,,,0,,0,
STOP_14126,,Normal,2,19.444245481262886,-99.1671895980835,,,0,,0,
STOP_14127,,El Rosario (6),6,19.50522895811951,-99.1994833946228,,,0,,0,
STOP_14128,,Tezozómoc,6,19.494488469086175,-99.19593214988708,,,0,,0,
STOP_14129,,Azcapotzalco,6,19.490675525164253,-99.1862118244171,,,0,,0,
STOP_14130,,El Rosario (7),7,19.503954700089416,-99.20029878616333,,,0,,0,
STOP_14131,,Aquiles Serdán,7,19.489367,-99.194511,,,0,,0,
STOP_14132,,Camarones,7,19.478730416636836,-99.1889476776123,,,0,,0,
STOP_14133,,Ferrería,6,19.49039233211219,-99.17370200157166,,,0,,0,
STOP_14134,,Candelaria,1,19.428927732306413,-99.1197144985199,,,0,,0,
STOP_14135,,Merced,1,19.425467380246257,-99.12541151046753,,,0,,0,
STOP_14136,,Zócalo,2,19.432602,-99.131879,,,0,,0,
STOP_14137,,Pino Suárez (2),2,19.424334149515712,-99.1331362724304,,,0,,0,
STOP_14138,,Juárez,3,19.43336942120971,-99.14771676063538,,,0,,0,
STOP_14139,,Balderas (3),3,19.426924379571048,-99.14881110191345,,,0,,0,
STOP_14140,,Valle Gómez,5,19.458681692800237,-99.11988615989685,,,0,,0,
STOP_14141,,Bellas Artes (8),8,19.43649573075971,-99.14061427116394,,,0,,0,
STOP_14142,,San Juan de Letrán,8,19.430981649106492,-99.14116144180298,,,0,,0,
STOP_14143,,La Viga,8,19.406106,-99.125973,,,0,,0,
STOP_14144,,Jamaica (9),9,19.408943689121642,-99.12227869033812,,,0,,0,
STOP_14145,,Chabacano (9),9,19.408513,-99.135489,,,0,,0,
STOP_14146,,R. Flores Magón,B,19.4362832650267,-99.10342812538147,,,0,,0,
STOP_14147,,San Lázaro (B),B,19.431822,-99.114463,,,0,,0,
STOP_14148,,Tepito,B,19.44256606281632,-99.12323355674744,,,0,,0,
STOP_14149,,Isabel la Católica,1,19.42609470100181,-99.13782477378845,,,0,,0,
STOP_14151,,Niños Héroes,3,19.4194672383966,-99.15023803710936,,,0,,0,
STOP_14152,,Hospital General,3,19.413699608253292,-99.1531991958618,,,0,,0,
STOP_14153,,Doctores,8,19.420499319044268,-99.14335012435913,,,0,,0,
STOP_14154,,Obrera,8,19.413011526433184,-99.14392948150635,,,0,,0,
STOP_14155,,Chabacano (8),8,19.40853892362356,-99.1357433795929,,,0,,0,
STOP_14156,,Lázaro Cárdenas,9,19.407021044033204,-99.14433717727661,,,0,,0,
STOP_14157,,Balderas (1),1,19.427298745343045,-99.14912223815918,,,0,,0,
STOP_14158,,Salto del Agua,8,19.427207683477906,-99.14207339286804,,,0,,0,
STOP_14159,,Chabacano (2),2,19.408913331744234,-99.13542151451111,,,0,,0,
STOP_14160,,San Antonio Abad,2,19.41590549798389,-99.13429498672485,,,0,,0,
STOP_14161,,Pino Suárez (1),1,19.42602387458619,-99.13273930549622,,,0,,0,
STOP_14162,,Bellas Artes (2),2,19.436586787417326,-99.14214849472046,,,0,,0,
STOP_14163,,Allende,2,19.43547386921122,-99.13670897483826,,,0,,0,
STOP_14164,,Guerrero (3),3,19.444751326787205,-99.14501309394836,,,0,,0,
STOP_14165,,Garibaldi (B),B,19.443376,-99.139954,,,0,,0,
STOP_14166,,Guerrero (B),B,19.445226820142476,-99.14635419845581,,,0,,0,
STOP_14167,,Hidalgo (2),2,19.437699697995267,-99.14730906486511,,,0,,0,
STOP_14168,,Hidalgo (3),3,19.436748665793658,-99.14681553840637,,,0,,0,
STOP_14169,,Garibaldi (8),8,19.443082,-99.139034,,,0,,0,
STOP_14170,,Buenavista,B,19.446157569060766,-99.15289878845215,,,0,,0,
STOP_14171,,Lagunilla,B,19.443001094563495,-99.13107633590698,,,0,,0,
STOP_14172,,Balbuena,1,19.422887245219854,-99.10281658172607,,,0,,0,
STOP_14173,,Moctezuma,1,19.426271,-99.109803,,,0,,0,
STOP_14174,,Fray Servando,4,19.421490919767205,-99.12033677101135,,,0,,0,
STOP_14175,,Jamaica (4),4,19.41014786052138,-99.12203192710876,,,0,,0,
STOP_14176,,Velódromo,9,19.40811391876628,-99.10283803939818,,,0,,0,
STOP_14177,,Mixhuca,9,19.4082049913292,-99.11285877227783,,,0,,0,
STOP_14178,,Santa Anita (4),4,19.4042584668255,-99.12120580673218,,,0,,0,
STOP_14179,,San Lázaro (1),1,19.43003057756082,-99.11496162414551,,,0,,0,
STOP_14181,,Canal del Norte,4,19.448666517815337,-99.11589503288269,,,0,,0,
STOP_14182,,Morelos (4),4,19.439733269436694,-99.11790132522583,,,0,,0,
STOP_14184,,Eduardo Molina,5,19.451124845296963,-99.10544514656067,,,0,,0,
STOP_14185,,Consulado (4),4,19.456820333324504,-99.11388874053955,,,0,,0,
STOP_14186,,Indios Verdes,3,19.495315,-99.119141,,,0,,0,
STOP_14187,,Deportivo 18 de Marzo (3),3,19.4840507008099,-99.12543296813965,,,0,,0,
STOP_14188,,Politécnico,5,19.499964,-99.148806,,,0,,0,
STOP_14190,,Deportivo 18 de Marzo (6),6,19.483585435783585,-99.1257655620575,,,0,,0,
STOP_14191,,La Villa - Basílica,6,19.481471497417974,-99.11815881729126,,,0,,0,
STOP_14192,,Potrero,3,19.476413,-99.131748,,,0,,0,
STOP_14193,,Autobuses del Norte,5,19.478595,-99.140471,,,0,,0,
STOP_14194,,Instituto del Petróleo,6,19.489836058603334,-99.1445517539978,,,0,,0,
STOP_14195,,Lindavista,6,19.487580602790626,-99.13434863090515,,,0,,0,
STOP_14196,,Martín Carrera (4),4,19.48376749617047,-99.1059923171997,,,0,,0,
STOP_14197,,Martín Carrera (6),6,19.48231100734469,-99.1055417060852,,,0,,0,
STOP_14198,,Guelatao,A,19.384595252819803,-99.03579354286194,,,0,,0,
STOP_14199,,Peñón Viejo,A,19.372915616599574,-99.01728630065918,,,0,,0,
STOP_14200,,Tepalcates,A,19.390728244576174,-99.04651165008545,,,0,,0,
STOP_14201,,UAM-I,8,19.350327,-99.074808,,,0,,0,
STOP_14202,,Constitución de 1917,8,19.345135,-99.063367,,,0,,0,
STOP_14203,,Cerro de la Estrella,8,19.355601,-99.085872,,,0,,0,
STOP_14204,,Acatitla,A,19.364251498082222,-99.00597810745239,,,0,,0,
STOP_14205,,Santa Marta,A,19.359804,-98.995894,,,0,,0,
STOP_14206,,Los Reyes,A,19.35877545671117,-98.97670984268188,,,0,,0,
STOP_14207,,La Paz,A,19.35048512921014,-98.96061658859253,,,0,,0,
STOP_14208,,Ciudad Azteca,B,19.534443119509234,-99.02711391448975,,,0,,0,
STOP_14209,,Plaza Aragón,B,19.528224555660035,-99.02979612350464,,,0,,0,
STOP_14210,,Nezahualcóyotl,B,19.472534,-99.054375,,,0,,0,
STOP_14211,,Villa de Aragón,B,19.461352301687533,-99.0611457824707,,,0,,0,
STOP_14212,,Terminal Aérea,5,19.43380447760007,-99.08820390701294,,,0,,0,
STOP_14213,,Hangares,5,19.423251,-99.087095,,,0,,0,
STOP_14214,,Pantitlán (5),5,19.415288256625697,-99.0750503540039,,,0,,0,
STOP_14215,,Pantitlán (A),A,19.414610300302005,-99.07262563705443,,,0,,0,
STOP_14216,,Pantitlán (1),1,19.41616858375206,-99.07434225082397,,,0,,0,
STOP_14217,,Zaragoza,1,19.411797257293816,-99.0832257270813,,,0,,0,
STOP_14219,,Bosque de Aragón,B,19.45787240869665,-99.06909584999084,,,0,,0,
STOP_14220,,Deportivo Oceanía,B,19.450770767503126,-99.07917022705077,,,0,,0,
STOP_14221,,Múzquiz,B,19.500961165546922,-99.04171586036682,,,0,,0,
STOP_14222,,Río de los Remedios,B,19.490240621344796,-99.04635071754456,,,0,,0,
STOP_14223,,Impulsora,B,19.484987,-99.048743,,,0,,0,
STOP_14224,,Olímpica,B,19.520842860214934,-99.03298258781432,,,0,,0,
STOP_14225,,Tecnológico,B,19.51470467314177,-99.03568625450134,,,0,,0,
STOP_14226,,Pantitlán (9),0,19.414885,-99.072516,,,0,,0,
STOP_14227,,Tláhuac,12,19.28680057316126,-99.01443243026733,,,0,,0,
STOP_14228,,Tlaltenco,12,19.294555,-99.023829,,,0,,0,
STOP_14229,,Zapotitlán,12,19.296390279375885,-99.03402328491211,,,0,,0,
STOP_14230,,Nopalera,12,19.29939770613229,-99.04621124267578,,,0,,0,
STOP_14231,,Olivos,12,19.30328601434201,-99.05831336975098,,,0,,0,
STOP_14232,,Tezonco,12,19.306124,-99.065867,,,0,,0,
STOP_14233,,Periférico Ote,12,19.317492,-99.074719,,,0,,0,
STOP_14234,,Calle 11,12,19.32025577734345,-99.08486723899841,,,0,,0,
STOP_14235,,Lomas Estrella,12,19.322002,-99.096696,,,0,,0,
STOP_14236,,San Andrés Tomatlán,12,19.327231499493312,-99.10259127616882,,,0,,0,
STOP_14237,,Culhuacán,12,19.338873913589527,-99.10894274711607,,,0,,0,
STOP_14238,,Mexicaltzingo,12,19.357449437520774,-99.1219139099121,,,0,,0,
STOP_14239,,Eje Central,12,19.361184532688743,-99.15133237838745,,,0,,0,
STOP_14240,,Parque de los Venados,12,19.370466227924492,-99.1576623916626,,,0,,0,
STOP_14241,,Hospital 20 de Nov.,12,19.371923719836367,-99.17099833488464,,,0,,0,
STOP_14242,,Insurgentes Sur,12,19.373603867948198,-99.17859435081482,,,0,,0,
STOP_15154,,Consulado (5),5,19.455484997062573,-99.11348104476929,,,0,,0,
STOP_15175,,CETRAM Metro San Lázaro - Paradero Lado Norte,Saliendo del Metro Linea - B,19.43136612325701,-99.11458611488342,,,0,,0,
STOP_15176,,Avenida Ingeniero Eduardo Molina - Calzada Ignacio Zaragoza,Pasando la Estacion del Metrobus Eduardo Molina,19.42923126844435,-99.11524057388306,,,0,,0,
STOP_15198,,Terminal Cetram Metro Santa Martha,,19.3602431753038,-98.99542093276978,,,0,,0,
STOP_15205,,Xocoyote - Xanticas,,19.43114353307027,-99.06212210655212,,,0,,0,
STOP_15208,,Calzada Ermita Iztapalapa - San Miguel,,19.347296429524395,-99.01939988136292,,,0,,0,
STOP_15210,,Calzada Ermita Iztapalapa - Quebradora,,19.34564637950772,-99.02086973190308,,,0,,0,
STOP_15211,,Calzada Ermita Iztapalapa - Jalisco,,19.34494788705124,-99.02517199516296,,,0,,0,
STOP_15213,,Eje 5 Norte Avenida San Juan de Aragón - Ferrocarril Hidalgo,,19.48242226736985,-99.10607814788818,,,0,,0,
STOP_15214,,Eje 5 Norte Avenida San Juan de Aragón - Avenida 5 de Febrero,,19.48441482033283,-99.113609790802,,,0,,0,
STOP_15215,,5 de Febrero - Mariano Abasolo,,19.48699397684749,-99.11286950111388,,,0,,0,
STOP_15216,,Cantera - Hidalgo,,19.487712087624224,-99.11359906196594,,,0,,0,
STOP_15217,,Prolongación Misterios - Albarradón,,19.489836058603334,-99.11799788475037,,,0,,0,
STOP_15218,,Prolongación Misterios - Insurgentes,,19.491413847577633,-99.1197144985199,,,0,,0,
STOP_15219,,Ticoman - Coquimbo,,19.49472108610007,-99.12205338478088,,,0,,0,
STOP_15221,,Ticoman - Cienfuegos,,19.498867681113477,-99.12449955940247,,,0,,0,
STOP_15224,,Juan De Dios Bátiz - Avenida Instituto Politécnico Nacional,,19.502973716831157,-99.13093686103821,,,0,,0,
STOP_15226,,Avenida Miguel Bernard -Juan de Dios Bátiz ,,19.503428812896892,-99.13339376449585,,,0,,0,
STOP_15227,,Calzada Ermita Iztapalapa - Tinacos,,19.344289884176472,-99.03256416320801,,,0,,0,
STOP_15228,,Calzada Ermita Iztapalapa - Calle 17,,19.343793849486378,-99.03581500053406,,,0,,0,
STOP_15229,,Calzada Ermita Iztapalapa - Calle 39,,19.34345978445779,-99.04046058654785,,,0,,0,
STOP_15230,,Calzada Ermita Iztapalapa - Calle 55,,19.343095349101326,-99.0438723564148,,,0,,0,
STOP_15231,,Calzada Ermita Iztapalapa - Calle 71,,19.342710666453385,-99.04747724533081,,,0,,0,
STOP_15232,,Avenida Miguel Bernard - Escuela de Ingenieros,,19.505795291799604,-99.13566827774048,,,0,,0,
STOP_15233,,Calzada Ermita Iztapalapa - 2 De Abril,,19.342406968985642,-99.0522837638855,,,0,,0,
STOP_15234,,Avenida Miguel Bernard - Luis Enrique Erro,,19.507251569300145,-99.1371488571167,,,0,,0,
STOP_15236,,Calzada Ermita Iztapalapa - Tulipán,,19.342842268513923,-99.05642509460449,,,0,,0,
STOP_15238,,Calzada Ermita Iztapalapa - Periférico,,19.34447210062278,-99.06000852584839,,,0,,0,
STOP_15239,,Calzada Ermita Iztapalapa - Metro Constitución De 1917,,19.34614240856724,-99.06335592269897,,,0,,0,
STOP_15240,,Xocoyote	- Xico,,19.430890589305964,-99.0596866607666,,,0,,0,
STOP_15242,,Calzada Ermita Iztapalapa - M. Rodríguez,,19.348065772295126,-99.0678083896637,,,0,,0,
STOP_15245,,Calzada Ermita Iztapalapa - San Felipe De Jesús,,19.350667338738496,-99.07361268997191,,,0,,0,
STOP_15246,,Xocoyote	- Xana            ,,19.430910824821602,-99.06104922294617,,,0,,0,
STOP_15247,,Miguel Othón de Mendizábal - Avenida del Carrizo,,19.50865726917224,-99.14251327514648,,,0,,0,
STOP_15249,,Miguel Othón de Mendizábal - 100 Metros,,19.505421107268944,-99.15063500404358,,,0,,0,
STOP_15250,,Miguel Othón de Mendizábal - Calzada Vallejo,,19.5030950759072,-99.15695428848267,,,0,,0,
STOP_15251,,Calzada Ermita Iztapalapa - Metro UAM,,19.35117347524955,-99.07490015029906,,,0,,0,
STOP_15254,,Avenida Poniente 152 - Norte 45,,19.50293326378558,-99.15736198425293,,,0,,0,
STOP_15255,,Avenida Poniente 152 - Norte 59,,19.504682848764347,-99.16295170783997,,,0,,0,
STOP_15257,,Avenida Poniente 152 - Ex-Hacienda,,19.506189701584045,-99.16730761528015,,,0,,0,
STOP_15259,,Avenida Poniente 152 - Sol de México,,19.50759541068541,-99.17041897773741,,,0,,0,
STOP_15263,,Avenida Ceylan - Poniente 150,,19.507433603065746,-99.17536497116089,,,0,,0,
STOP_15264,,Avenida Ceylan - Poniente 148,,19.505967214131573,-99.17478561401367,,,0,,0,
STOP_15265,,Avenida Ceylan - Poniente 146,,19.503165868659526,-99.17373418807983,,,0,,0,
STOP_15267,,Avenida Ceylan - Poniente 134,,19.49594484836262,-99.17090177536011,,,0,,0,
STOP_15269,,Azcapotzalco/La Villa - Avenida Granjas,,19.490766551397215,-99.1734766960144,,,0,,0,
STOP_15270,,Avenida Granjas - Avenida Hidalgo,,19.492678090465358,-99.17322993278503,,,0,,0,
STOP_15271,,Avenida Granjas - Rastro,,19.496571896514894,-99.17366981506348,,,0,,0,
STOP_15272,,Avenida Granjas - Tec. Milenio,,19.499605966155286,-99.17484998703003,,,0,,0,
STOP_15274,,Avenida Granjas - Matlacoatl,,19.501062299374706,-99.17523622512817,,,0,,0,
STOP_15276,,Eje 5 Norte Avenida Deportivo Reynosa - Tecno-Parque,,19.501365700478786,-99.17665243148804,,,0,,0,
STOP_15280,,San Pablo - UAM ,,19.50363107740403,-99.18330430984497,,,0,,0,
STOP_15284,,Xochitlán Sur	- Xochistláhuaca  ,,19.429625864575705,-99.05809879302979,,,0,,0,
STOP_15285,,San Pablo - Unidad Tepaltongo,,19.501042072614208,-99.18394804000854,,,0,,0,
STOP_15286,,San Pablo - Calzada Real de San Martin,,19.49675394229756,-99.18480634689331,,,0,,0,
STOP_15287,,Gasoducto - Pozo Pedregal,,19.49560098221536,-99.18654441833496,,,0,,0,
STOP_15288,,Xochitlán Sur - Meztli,,19.428189125334786,-99.05694007873535,,,0,,0,
STOP_15289,,Campo Nuevo Limón - Refineria Azcapotzalco,,19.491504873395417,-99.18820738792418,,,0,,0,
STOP_15290,,Acolhuacan - Chimalpopoca,,19.426307180063393,-99.0568220615387,,,0,,0,
STOP_15291,,Calzada De Guadalupe - San Simón,,19.48963377685348,-99.186372756958,,,0,,0,
STOP_15292,,San Simón - Sevilla,,19.487823343938494,-99.1864800453186,,,0,,0,
STOP_15293,,San Simón - Aragón,,19.486093805319072,-99.18623328208922,,,0,,0,
STOP_15294,,Acolhuacan - Cuitláhuac,,19.425082892134323,-99.05689716339111,,,0,,0,
STOP_15295,,Zaragoza - Castilla,,19.484566536559104,-99.18661952018738,,,0,,0,
STOP_15296,,Zaragoza - Castilla,,19.48264478719088,-99.1872203350067,,,0,,0,
STOP_15297,,Acolhuacan - Rey Maxtla,,19.424040722413313,-99.0565538406372,,,0,,0,
STOP_15298,,Acolhuacan - Circunvalación,,19.422259912080555,-99.0567147731781,,,0,,0,
STOP_15300,,Anillo de Circunvalación	- Meztli,,19.422371213298135,-99.0572726726532,,,0,,0,
STOP_15301,,Reforma - Lerdo de Tejada,,19.47987338215814,-99.18776750564575,,,0,,0,
STOP_15302,,Reforma - Manuel Acuña,,19.478831564353367,-99.18804645538329,,,0,,0,
STOP_15303,,Tenochtitlán - Circunvalación,,19.42278606261927,-99.0588927268982,,,0,,0,
STOP_15304,,Centenario - Aquiles Elorduy,,19.47455296077929,-99.18848633766174,,,0,,0,
STOP_15305,,José F. Gutiérrez - Invierno,,19.46978870896074,-99.18858289718628,,,0,,0,
STOP_15306,,José F. Gutiérrez - Otoño,,19.46778586064832,-99.18876528739929,,,0,,0,
STOP_15307,,José F. Gutiérrez - Estío,,19.465793103169958,-99.18896913528442,,,0,,0,
STOP_15308,,Tenochtitlán - Iztacihuatl,,19.42448592194694,-99.06054496765137,,,0,,0,
STOP_15309,,Estío - Azcapotzalco,,19.465681831725693,-99.18779969215393,,,0,,0,
STOP_15310,,Floresta - Egipto,,19.4644376094651,-99.18679118156433,,,0,,0,
STOP_15311,,Grecia - Niza,,19.463264187851948,-99.18428063392639,,,0,,0,
STOP_15312,,Grecia - Bocanegra,,19.462212147461106,-99.18256402015686,,,0,,0,
STOP_15313,,Grecia - Venecia,,19.461241027195364,-99.18090105056763,,,0,,0,
STOP_15314,,Venecia - Benito Juárez,,19.45991584328262,-99.1817808151245,,,0,,0,
STOP_15315,,Netzahualcóyotl - Cacamatzin,,19.424708521256328,-99.0616500377655,,,0,,0,
STOP_15317,,Calzada México Tacuba - Mar Baffin,,19.45858053250814,-99.18403387069702,,,0,,0,
STOP_15318,,Netzahualcóyotl - Tizoc,,19.424850175203506,-99.06272292137146,,,0,,0,
STOP_15320,,Netzahualcóyotl - Atzayacatl,,19.425012065277624,-99.0642464160919,,,0,,0,
STOP_15321,,Netzahualcóyotl - Moctezuma,,19.4251638370756,-99.06530857086182,,,0,,0,
STOP_15322,,Caracol -	Prolongación Río Churubusco,,19.425325726837187,-99.06638145446776,,,0,,0,
STOP_15323,,Caracol - Tortuga,,19.425497734532126,-99.06806588172913,,,0,,0,
STOP_15324,,Caracol - Langosta,,19.42568997821097,-99.06969666481018,,,0,,0,
STOP_15325,,Caracol  -	Coral,,19.425882221662324,-99.07119870185852,,,0,,0,
STOP_15326,,Caracol - Jaiba,,19.426064346827463,-99.0722608566284,,,0,,0,
STOP_15327,,Jaiba - Camarón,,19.425012065277624,-99.07241106033325,,,0,,0,
STOP_15328,,Agustín Olachea Avilés - Javier Barros Sierra,,19.423605639872317,-99.07261490821838,,,0,,0,
STOP_15329,,Agustín Olachea Avilés -	Ernesto P. Uruchurtú,,19.422128374179692,-99.0727972984314,,,0,,0,
STOP_15330,,Agustín Olachea Avilés -	Jaime Torres Bodet,,19.420661213453137,-99.07309770584106,,,0,,0,
STOP_15331,,Agustín Olachea Avilés -	Benito Coquet,,19.419226382672502,-99.07326868979526,,,0,,0,
STOP_15332,,Agustín Olachea Avilés -	Gustavo Díaz Ordaz,,19.417969697959517,-99.0734302997589,,,0,,0,
STOP_15333,, Cetram Metro Pantitlán -	Pantitlán,,19.416553092955002,-99.07462120056152,,,0,,0,
STOP_15347,, Terminal Santa Catarina,Eje 10 Sur - Hospital Psiquiátrico,19.32108599501106,-98.95942568778992,,,0,,0,
STOP_15349,,Eje 10 Sur - Entrada Autopista A Puebla,,19.322888160310924,-98.95685076713562,,,0,,0,
STOP_15356,,Autopista México/Puebla - La Virgen,,19.342093147675328,-98.97770762443542,,,0,,0,
STOP_15359,,Eje 5 Sur Avenida De Las Torres - Juan Escutia,,19.345565395028302,-98.98350119590759,,,0,,0,
STOP_15369,,Eje 5 Sur Avenida De Las Torres - Lázaro Cárdenas,,19.34602093220226,-98.98640871047974,,,0,,0,
STOP_15370,,Eje 5 Sur Avenida De Las Torres - Unión De Colonos,,19.34670929707478,-98.99006724357605,,,0,,0,
STOP_15376,,Eje 5 Sur Avenida De Las Torres - Olvido,,19.347276183613026,-98.99299621582031,,,0,,0,
STOP_15378,,Eje 6 Sur Avenida De Las Torres - Pípila,,19.34777220771849,-98.9953887462616,,,0,,0,
STOP_15382,,Eje 5 Sur Avenida De Las Torres - Miguel De La  Madrid,,19.34824798452533,-98.99789929389954,,,0,,0,
STOP_15389,,Eje 5 Sur Avenida De Las Torres - San Ignacio,,19.34873388281109,-99.00048494338989,,,0,,0,
STOP_15391,,Eje 5 Sur Avenida De Las Torres - Ramón ,,19.34912867410282,-99.00216937065125,,,0,,0,
STOP_15392,,Eje 5 Sur Avenida De Las Torres - Cuauhtémoc,,19.349442481884072,-99.00371432304381,,,0,,0,
STOP_15393,,Eje 5 Sur Avenida De Las Torres - Santa Cruz,,19.34990813102783,-99.00643944740295,,,0,,0,
STOP_15398,,Eje 5 Sur Avenida De Las Torres - Octavio Senties,,19.35062684774979,-99.01018381118774,,,0,,0,
STOP_15399,,Eje 5 Sur Avenida De Las Torres - Eje 8 Sur Calzada Ermita - Iztapalapa,,19.352236356811588,-99.01485085487366,,,0,,0,
STOP_15402,,Calzada Ignacio Zaragoza - Eje 3 Oriente Francisco Del Paso Y Troncoso,Parabus Antes de la Curva,19.427501104860603,-99.11185026168823,,,0,,0,
STOP_15403,,Eje 6 Sur Avenida De Las Torres - Juan N. Álvarez,,19.354159648701494,-99.01852011680602,,,0,,0,
STOP_15406,,Eje 6 Sur Avenida De Las Torres - Avenida México,,19.35658903762211,-99.02301549911499,,,0,,0,
STOP_15409,,Eje 6 Sur Avenida De Las Torres - Vicente Guerrero,,19.358684356501037,-99.02707099914551,,,0,,0,
STOP_15412,,Avenida Ceylan - Azcapotzalco/La Villa,,19.491009287768183,-99.16931390762329,,,0,,0,
STOP_15414,,Eje 3 Oriente Francisco Del Paso Y Troncoso - Fray Servando Teresa De Mier,,19.4203778981318,-99.11233305931091,,,0,,0,
STOP_15417,,Avenida Ceylan - Poniente 140,,19.499100291832594,-99.1721248626709,,,0,,0,
STOP_15429,,Avenida Poniente 152 - Maravillas,,19.508556140092924,-99.17295098304749,,,0,,0,
STOP_15430,,Eje 5 Sur Avenida De Las Torres - Narciso ,,19.362247349010822,-99.02876615524292,,,0,,0,
STOP_15431,,Eje 5 Sur Avenida De Las Torres - Plan De Ayala,,19.363127963000768,-99.03090119361877,,,0,,0,
STOP_15433,,Eje 5 Sur Avenida De Las Torres - Fuerte De Loreto,,19.36437296087048,-99.03414130210876,,,0,,0,
STOP_15435,,Eje 5 Sur Avenida De Las Torres - Miguel Hidalgo,,19.365506609196874,-99.03696298599243,,,0,,0,
STOP_15436,,Eje 3 Oriente Francisco Del Paso Y Troncoso - Avenida Del Taller,En la Esquina del Eje 3 Ote y Av. del Taller,19.41387162825329,-99.1129982471466,,,0,,0,
STOP_15437,,Eje 5 Sur - Guelatao,,19.36651878854065,-99.03994560241699,,,0,,0,
STOP_15441,,Eje 5 Sur - Renovación,,19.372976344776685,-99.0483570098877,,,0,,0,
STOP_15442,,Eje 5 Sur - Los Frentes,,19.37413017584147,-99.0523910522461,,,0,,0,
STOP_15444,,Eje 3 Oriente Francisco Del Paso Y Troncoso - Metro Mixihuca,Saliendo del Metro antes de cruzar la Av. Morelos,19.40884249784158,-99.11343812942505,,,0,,0,
STOP_15445,,Eje 5 Sur - Mercado Los Frentes,,19.37632648081476,-99.0576159954071,,,0,,0,
STOP_15446,,Eje 5 Sur - Periférico,,19.37651878260549,-99.0592360496521,,,0,,0,
STOP_15447,,Eje 3 Oriente Francisco Del Paso Y Troncoso - Viaducto Río De La Piedad,Frente al las escaleras del Vips ,19.406413888230393,-99.11369562149046,,,0,,0,
STOP_15448,,Eje 5 Sur - Leyes De Reforma,,19.37669084191007,-99.06421422958374,,,0,,0,
STOP_15449,,Eje 5 Sur - Guerra De Reforma,,19.377287987498516,-99.06774401664734,,,0,,0,
STOP_15451,,Eje 3 Oriente Francisco Del Paso Y Troncoso - 16 De Septiembre,Parabus 200 metros antes del Dormimundo,19.403489389363486,-99.11396384239197,,,0,,0,
STOP_15452,,Eje 5 Sur - Rojo Gómez,,19.378876991368323,-99.07711029052734,,,0,,0,
STOP_15455,,Eje 5 Sur - Entrada A La Central De Abasto,,19.37995993416847,-99.08280730247498,,,0,,0,
STOP_15456,,Eje 3 Oriente Francisco Del Paso Y Troncoso - Plutarco Elías Calles,,19.39858137518627,-99.11374926567078,,,0,,0,
STOP_15457,,Eje 5 Sur - Central de Abasto,,19.38007126432859,-99.08648729324341,,,0,,0,
STOP_15460,,Central de Abasto Avenida Principal - Avenida  Principal Verduras,,19.374676724546635,-99.08891201019287,,,0,,0,
STOP_15463,,Central de Abasto Avenida Principal - Abarrotes,,19.374869028284643,-99.0901780128479,,,0,,0,
STOP_15465,,Central de Abasto Avenida Principal - Ávila Churubusco,,19.375020846864853,-99.09277439117432,,,0,,0,
STOP_15466,,Hualquila - Pescaderías,,19.372126148237587,-99.09790277481079,,,0,,0,
STOP_15467,,Eje 3 Oriente Francisco Del Paso Y Troncoso - Francisco I. Madero,Parabus Bajando las Escalinatas del Puente Peatonal,19.390869928124,-99.11324501037598,,,0,,0,
STOP_15468,,Terminal Central de Abasto,,19.372328576387343,-99.09629344940184,,,0,,0,
STOP_15469,,Eje 3 Oriente Francisco Del Paso Y Troncoso - Tezontle,,19.38864345811583,-99.11244034767151,,,0,,0,
STOP_15481,,Ticoman - Moyobamba,,19.501689327695992,-99.1265594959259,,,0,,0,
STOP_15483,,Eje 3 Oriente Francisco Del Paso Y Troncoso - Santa María,Esquina de la Calle Santa María ,19.376731326425915,-99.10882472991943,,,0,,0,
STOP_15492,,Eje 3 Oriente Francisco Del Paso Y Troncoso - Físicos,Bajando las escalinatas del Puente Peatonal,19.3706686581362,-99.10832047462463,,,0,,0,
STOP_15496,,Avenida 5 - Crisóforo Salido Grijalva,"En la esquina de la calle, Frente a una Farmacia",19.368350817169322,-99.10882472991943,,,0,,0,
STOP_15501,,Avenida 5 - Escuadrón 201,A 200 metros antes de las Escalinatas de la Estación del Metro 201 ,19.36433247328446,-99.10940408706665,,,0,,0,
STOP_15507,,Avenida 5 - Anastasio Sarabia,100 metros antes de las escalinatas del Puente Peatonal,19.360698671491264,-99.11057353019713,,,0,,0,
STOP_15509,,Avenida 5 - Eje 8 Sur Calzada Ermita - Iztapalapa,200 metros antes de la esquina con la Calzada de Ermita Iztapalapa,19.356923075768865,-99.11144256591797,,,0,,0,
STOP_15519,,Joaquín Pardave - José Rolon,,19.562742142823552,-99.14141893386841,,,0,,0,
STOP_15520,,Joaquín Pardave - Agustín Lara,,19.563106085066767,-99.14176225662231,,,0,,0,
STOP_15524,,Cometa - Diamante,,19.56253995233347,-99.14180517196655,,,0,,0,
STOP_15527,,Calzada Ermita Iztapalapa - Octavio Senties,,19.35361303120777,-99.01254415512085,,,0,,0,
STOP_15528,,Calzada Ermita Iztapalapa - Avenida De Las Torres,,19.352661507497416,-99.01501178741455,,,0,,0,
STOP_15530,,Arneses - Cuauhtémoc,Parabus en la esquina de la calle,19.344360746151988,-99.11200046539307,,,0,,0,
STOP_15533,,18 de Marzo - Puerto Acapulco,,19.559183553162065,-99.14382219314575,,,0,,0,
STOP_15534,,18 de Marzo - Puerto Vallarta,,19.56033605954843,-99.1430926322937,,,0,,0,
STOP_15537,,18 de Marzo - Luis Echeverría,,19.561266146415775,-99.14255619049072,,,0,,0,
STOP_15542,,Carlota Armero - Canal Nacional,Parabus frente al Canal Nacional,19.336069686254387,-99.11312699317932,,,0,,0,
STOP_15546,,Carlota Armero - Apaches,Parabus en la esquina de la Avenida Apaches,19.33268835170328,-99.11305189132689,,,0,,0,
STOP_15552,,Calzada Ermita Iztapalapa - Primavera,,19.35018144621066,-99.01793003082275,,,0,,0,
STOP_15553,,Carlota Armero - Plaza Teotihuacán,Parabus a 500 metros antes de la Avenida Santa Ana,19.3292158304808,-99.11380290985107,,,0,,0,
STOP_15554,,Calzada Ermita Iztapalapa - El LLano,,19.344553085644737,-99.02862668037415,,,0,,0,
STOP_15559,,Calzada México-Tacuba,,19.459612364526645,-99.18871164321898,,,0,,0,
STOP_15560,,Avenida Azcapotzalco - Mar Mediterráneo,,19.46034071258681,-99.18864727020264,,,0,,0,
STOP_15561,,Avenida Azcapotzalco - Benito Juárez,,19.463699164095726,-99.18803572654724,,,0,,0,
STOP_15563,,Avenida Azcapotzalco - Clavería,,19.4656616005458,-99.18789625167847,,,0,,0,
STOP_15565,,Avenida Azcapotzalco - Otoño,,19.467664475106687,-99.18767094612122,,,0,,0,
STOP_15566,,Avenida Azcapotzalco - Invierno,,19.469707786276395,-99.1874885559082,,,0,,0,
STOP_15568,,Avenida Azcapotzalco - San Lucas,,19.47207475809912,-99.18724179267883,,,0,,0,
STOP_15569,,Avenida Azcapotzalco - Aquiles Elorduy,,19.474310199742337,-99.18720960617065,,,0,,0,
STOP_15570,,Avenida Azcapotzalco - Manuel Acuña,,19.47850789143814,-99.1869843006134,,,0,,0,
STOP_15571,,Avenida Azcapotzalco - Esperanza,,19.482381809187725,-99.1860294342041,,,0,,0,
STOP_15572,,Avenida Azcapotzalco - Castilla,,19.48450585008565,-99.18566465377808,,,0,,0,
STOP_15573,,Avenida Azcapotzalco - San Simón,,19.487145690657236,-99.18522477149962,,,0,,0,
STOP_15574,,Avenida Azcapotzalco - Antigua Calzada de Guadalupe,,19.489573092279226,-99.1860830783844,,,0,,0,
STOP_15575,,Avenida Azcapotzalco - Tepantongo,,19.491009287768183,-99.18631911277771,,,0,,0,
STOP_15577,,Avenida Tepantongo - Refinería Minatitlan,,19.492556723576598,-99.18654441833496,,,0,,0,
STOP_15578,,Avenida Tepantongo - Salamanca,,19.493992892593912,-99.18590068817139,,,0,,0,
STOP_15579,,Avenida Tepantongo - Real de San Martín,,19.496652805776915,-99.18480634689331,,,0,,0,
STOP_15580,,Avenida San Pablo Xalpa - Módulo 23,,19.498726091816376,-99.18432354927063,,,0,,0,
STOP_15582,,Calzada Ermita Iztapalapa - San Lorenzo,,19.35126457965477,-99.07511472702026,,,0,,0,
STOP_15583,,San Pablo Xalpa - Deportivo Reyonsa,,19.501406153916335,-99.18377637863158,,,0,,0,
STOP_15584,,San Pablo Xalpa - Eje 5 Norte,,19.5038636812746,-99.18313264846802,,,0,,0,
STOP_15585,,Eje 5 Norte Avenida Deportivo Reynosa - Alameda Norte,,19.50145672069905,-99.17689919471741,,,0,,0,
STOP_15587,,Avenida Granjas - Matlacoatl,,19.500799351290954,-99.17547225952148,,,0,,0,
STOP_15589,,Central de Abasto - Pescaderías,,19.372439911762516,-99.09644365310669,,,0,,0,
STOP_15590,,Calzada Ermita Iztapalapa - Francisco J. Mina,,19.35463540688098,-99.08260345458984,,,0,,0,
STOP_15592,,Calzada Ermita Iztapalapa - Metro Cerro De La Estrella,,19.356589037622097,-99.08639073371887,,,0,,0,
STOP_15594,,Pescaderías - Huaquila,,19.372318454985823,-99.09773111343384,,,0,,0,
STOP_15596,,Calzada Ermita Iztapalapa - La Estrella,,19.358613500746852,-99.08977031707764,,,0,,0,
STOP_15598,,Calzada Ermita Iztapalapa - Metro Iztapalapa,,19.35796567528117,-99.09348249435425,,,0,,0,
STOP_15599,,Hualquila - Canal De Churubusco,,19.372703067801453,-99.09927606582642,,,0,,0,
STOP_15600,,Antigua Calzada de Guadalupe - Norte 59,,19.490119252628517,-99.16650295257568,,,0,,0,
STOP_15602,,Antigua Calzada de Guadalupe - Metro Ferrería,,19.490766551397215,-99.17328357696533,,,0,,0,
STOP_15603,,Calzada Ermita Iztapalapa - Del Rosal,,19.35674087322816,-99.09748435020447,,,0,,0,
STOP_15607,,Armada De México - Amacuzac,,19.317643601561908,-99.11257982254028,,,0,,0,
STOP_15608,,Calzada Ermita Iztapalapa - Metro Atlalilco,,19.35611328514108,-99.101003408432,,,0,,0,
STOP_15613,,Avenida  Principal Central De Abasto - Abarrotes,,19.374676724546635,-99.09201264381409,,,0,,0,
STOP_15614,,Calzada Ermita Iztapalapa - Avenida Tláhuac,,19.356244876391692,-99.10546660423279,,,0,,0,
STOP_15615,,Avenida  Principal Central De Abasto - Flores,,19.37466660329099,-99.09005999565125,,,0,,0,
STOP_15616,,Calzada Ermita Iztapalapa - Año De Juárez,,19.356508058574395,-99.10925388336182,,,0,,0,
STOP_15618,,Avenida  Principal Central De Abasto - Subasta,,19.374676724546635,-99.08779621124268,,,0,,0,
STOP_15624,,Miguel Othón de Mendizábal - Compañía de Luz,,19.50334790702323,-99.15502309799194,,,0,,0,
STOP_15626,,Calzada Ermita Iztapalapa - Avenida Cinco,,19.356649771881486,-99.11109924316405,,,0,,0,
STOP_15630,,Avenida Poniente 152 - Norte 65,,19.506705466774015,-99.1687560081482,,,0,,0,
STOP_15635,,Miguel Othón de Mendizábal - Sanborns,,19.508283091262886,-99.14229869842528,,,0,,0,
STOP_15637,,Calzada Ermita Iztapalapa - Radames,,19.357024299314627,-99.1150689125061,,,0,,0,
STOP_15638,,Avenida Miguel Bernard - Luis Enrique Erro,,19.507170665338556,-99.13740634918211,,,0,,0,
STOP_15639,,Avenida Miguel Bernard - Escuela de Ingenieros,,19.505734613285874,-99.13607597351073,,,0,,0,
STOP_15640,,Calzada Ermita Iztapalapa - Artesanos,,19.357651883896086,-99.11890983581543,,,0,,0,
STOP_15641,,Avenida Miguel Bernard -Juan de Dios Bátiz,,19.503054622891977,-99.13350105285645,,,0,,0,
STOP_15642,,Calzada Ermita Iztapalapa - La Viga,,19.35781384081539,-99.12165641784668,,,0,,0,
STOP_15644,,Avenida  Principal Central De Abasto - Cazuelas,,19.37442369296661,-99.08180952072142,,,0,,0,
STOP_15645,,Juan de Dios Bátiz - Ticoman,,19.502235447157048,-99.12738561630249,,,0,,0,
STOP_15646,,Ticoman - Manizales,,19.500839804870118,-99.12631273269653,,,0,,0,
STOP_15647,,Eje 6 Sur - Rojo Gómez,,19.371812384108495,-99.08085465431213,,,0,,0,
STOP_15649,,Ticoman - Cienfuegos,,19.498635070059965,-99.12474632263184,,,0,,0,
STOP_15650,,Ticoman - Coquimbo,,19.494953702779625,-99.12240743637085,,,0,,0,
STOP_15651,,Calzada Ermita Iztapalapa - J. A. Rivas,,19.357996042157367,-99.12482142448425,,,0,,0,
STOP_15652,,Cantera - Albarradón,,19.48953263588376,-99.11805152893066,,,0,,0,
STOP_15654,,Calzada Ermita Iztapalapa - Sur 85,,19.358319955151572,-99.12750363349915,,,0,,0,
STOP_15655,,Eje 6 Sur Jalisco - Agustín Melgar,,19.3691403038205,-99.07659530639648,,,0,,0,
STOP_15656,,De Los Misterios - Montevideo,,19.485143056922556,-99.11871671676636,,,0,,0,
STOP_15657,,Cuauhtémoc - 5 de Febrero,,19.48036900186853,-99.11509037017822,,,0,,0,
STOP_15659,,Circuito Interior - Eje 8 Sur Calzada Ermita - Iztapalapa ,,19.358724845489608,-99.13067936897278,,,0,,0,
STOP_15661,,Eje 6 Sur Jalisco - San Rafael Atlixco,,19.368239479000568,-99.07483577728271,,,0,,0,
STOP_15663,,Calzada Ermita Iztapalapa - Sur 75,,19.358947534747017,-99.13270711898804,,,0,,0,
STOP_15664,,Avenida San Juan de Aragón - Ferrocarril Hidalgo,,19.482290778241,-99.10644292831421,,,0,,0,
STOP_15665,,Avenida San Juan de Aragón - Anzar,,19.4810972566508,-99.10354614257812,,,0,,0,
STOP_15667,,Calzada Ermita Iztapalapa - Sur 73,,19.359038634810133,-99.1344666481018,,,0,,0,
STOP_15668,,Cierre de Circuito Metro Martin Carrera,,19.482685245307305,-99.10686135292053,,,0,,0,
STOP_15670,,Sur 73 - Manuel Carpio,,19.36087074749761,-99.13418769836426,,,0,,0,
STOP_15672,,Sur 73 - Oriente 172,,19.3628141815498,-99.13385510444641,,,0,,0,
STOP_15673,,Eje 6 Sur Jalisco - UAM,,19.36646817972271,-99.0717351436615,,,0,,0,
STOP_15675,,Sur 73 - Arboledas,,19.364332473284446,-99.13361907005309,,,0,,0,
STOP_15677,,Eje 6 Sur Jalisco - Albarrada,,19.365364903587206,-99.06988978385925,,,0,,0,
STOP_15678,,Eje 6 Sur Jalisco - Esteban Monroy,,19.363907353024047,-99.06511545181274,,,0,,0,
STOP_15681,,Eje 6 Sur Jalisco - Alejo Rico,,19.363674548602148,-99.06279802322388,,,0,,0,
STOP_15683,,Eje 6 Sur Jalisco - Jacinto Huitron,,19.362895157465932,-99.05501961708067,,,0,,0,
STOP_15684,,Cafetales - Cañaverales,Frente a Iglesia Cristiana,19.29515488940658,-99.11468267440794,,,0,,0,
STOP_15686,,Eje 6 Sur Jalisco - Celestino Jasca,,19.36238905733031,-99.05076026916504,,,0,,0,
STOP_15687,,Eje 6 Sur Jalisco - Carlos L. Gracida,,19.362156250740384,-99.04906511306763,,,0,,0,
STOP_15690,,Sur 73 - Municipio Libre,,19.366447936191157,-99.1332221031189,,,0,,0,
STOP_15691,,Eje 6 Sur Jalisco - Guelatao,,19.361052945424042,-99.04085755348204,,,0,,0,
STOP_15692,,Municipio Libre - Plutarco Elías Calles,,19.36726779720869,-99.13739562034607,,,0,,0,
STOP_15693,,Municipio Libre - Miravalle,,19.367581570087232,-99.1392731666565,,,0,,0,
STOP_15695,,Cafetales - Alfalfares,Frente a la Acuática Nelson Vargas,19.292410670126774,-99.11515474319458,,,0,,0,
STOP_15697,,Municipio Libre - Bélgica,,19.368563371643905,-99.14515256881714,,,0,,0,
STOP_15700,,Municipio Libre - Rumania,,19.368715196098904,-99.14598941802979,,,0,,0,
STOP_15701,,Municipio Libre - Eje Central Lázaro Cárdenas,,19.369312370916383,-99.14992690086365,,,0,,0,
STOP_15703,,Municipio Libre - Azores,,19.370010759028784,-99.15437936782837,,,0,,0,
STOP_15705,,Municipio Libre - División Del Norte,,19.370395377290983,-99.15656805038452,,,0,,0,
STOP_15706,,Eje 6 Sur Avenida De Las Torres - Francisco Villa,,19.36068854936758,-99.03612613677977,,,0,,0,
STOP_15707,,Municipio Libre - Uxmal,,19.370678779640183,-99.1585636138916,,,0,,0,
STOP_15708,,Eje 6 Sur Avenida De Las Torres - Plan De Ayala,,19.360465862487754,-99.03271436691284,,,0,,0,
STOP_15709,,Ventisca - Periférico Norte,,19.527274054889713,-99.15839195251465,,,0,,0,
STOP_15710,,Eje 6 Sur Avenida De Las Torres - Narciso Mendoza,,19.359595356312216,-99.02855157852171,,,0,,0,
STOP_15715,,Eje 6 Sur Avenida De Las Torres - Vicente Guerrero,,19.358613500746863,-99.02713537216187,,,0,,0,
STOP_15717,,Municipio Libre - Cuauhtémoc,,19.371022910401642,-99.16105270385741,,,0,,0,
STOP_15718,,Avenida Benito Juárez - Luis Espinoza,,19.535322799454143,-99.15796279907227,,,0,,0,
STOP_15720,,Eje 6 Sur Avenida De Las Torres - Avenida México,,19.35665989425586,-99.02334809303284,,,0,,0,
STOP_15721,,Avenida Benito Juárez - Ejército Del Trabajo,,19.5366170325004,-99.15693283081055,,,0,,0,
STOP_15722,,Municipio Libre - Metro Zapata,,19.37060792909908,-99.16444301605225,,,0,,0,
STOP_15723,,Acoxpa - 2da. Cerrada De Acoxpa,En la Esquina con rejas Verdes,19.289939820785822,-99.11781549453735,,,0,,0,
STOP_15724,,Avenida Benito Juárez - Emiliano Zapata,,19.53847747433023,-99.15534496307373,,,0,,0,
STOP_15726,,Avenida Cuautepec - Vicente Guerrero,,19.543209371069334,-99.15216922760008,,,0,,0,
STOP_15727,,Eje 6 Sur Avenida De Las Torres - Vista Hermosa,,19.35557679663598,-99.02132034301756,,,0,,0,
STOP_15728,,Acoxpa - El Potrero,En la Esquina de la Calle ,19.290709433596167,-99.11967158317566,,,0,,0,
STOP_15730,,Avenida Tecnológico - Manuel Altamirano,,19.543209371069334,-99.14665460586548,,,0,,0,
STOP_15731,,Avenida Tecnológico - Ciprés,,19.545433719043416,-99.14547443389893,,,0,,0,
STOP_15732,,Acoxpa - La Teja,Esquina de la Calle,19.291671444520848,-99.12216067314148,,,0,,0,
STOP_15733,,Estado de México - Avenida Tecnológico,,19.549841881718,-99.14350032806396,,,0,,0,
STOP_15734,,Acoxpa - Canal De Miramontes,Parabus Frente a Wal-Mart ,19.292420796481753,-99.12413477897644,,,0,,0,
STOP_15737,,18 de Marzo - Guadalupe Victoria,,19.557768183173625,-99.14478778839111,,,0,,0,
STOP_15738,,Eje Central Lázaro Cárdenas - Glorieta Guadalupe,,19.522319226281674,-99.15794134140015,,,0,,0,
STOP_15740,,Canal de Miramontes - El Cántaro,Parabus en esquina de la Calle,19.29026386872591,-99.12611961364746,,,0,,0,
STOP_15741,,Cierre de Circuito Cetram Metro Mixcoac,,19.375769816456735,-99.18791770935059,,,0,,0,
STOP_15742,,Canal de Miramontes - Carreta,Parabus bajando las escalinatas del Puente Peatonal pasando la Calle,19.288613242843233,-99.126216173172,,,0,,0,
STOP_15743,,Eje 6 Sur Avenida De Las Torres - Cuauhtémoc,,19.354028055768563,-99.0184235572815,,,0,,0,
STOP_15744,,Eje 6 Sur Avenida De Las Torres - Eje 8 Sur Calzada Ermita/Iztapalapa,,19.35276273368787,-99.01606321334837,,,0,,0,
STOP_15745,,Eje 6 Sur Avenida De Las Torres - Eje 8 Sur Calzada Ermita/Iztapalapa,,19.351780836990084,-99.0149474143982,,,0,,0,
STOP_15746,,Eje 6 Sur Avenida De Las Torres - Octavio Senties,,19.3509001617286,-99.01205062866211,,,0,,0,
STOP_15747,,Eje Central Lázaro Cárdenas - Calle 16,,19.520418149670306,-99.15704011917114,,,0,,0,
STOP_15749,,Cárcamo - División Del Norte,En la esquina frente al Registro Civil No 3,19.287073993895756,-99.12707448005676,,,0,,0,
STOP_15750,,Eje 6 Sur Avenida De Las Torres - Pirules,,19.35055598849535,-99.01032328605652,,,0,,0,
STOP_15751,,Eje Central Lázaro Cárdenas - Júpiter,,19.511134911860488,-99.15384292602538,,,0,,0,
STOP_15752,,Eje 6 Sur Avenida De Las Torres - Tepozán,,19.35002960449895,-99.00758743286133,,,0,,0,
STOP_15753,,Eje Central Lázaro Cárdenas - Margarita Maza de Juárez,,19.50795947723773,-99.15257692337036,,,0,,0,
STOP_15754,,Eje Central Lázaro Cárdenas - Othón de Mendizábal,,19.505188505637918,-99.15141820907593,,,0,,0,
STOP_15755,,Eje 6 Sur Avenida De Las Torres - Cuauhtémoc,,19.34966518381427,-99.00557041168213,,,0,,0,
STOP_15756,,Prolongación División Del Norte - Periférico,Frente Plaza Vaqueritos,19.28193968389679,-99.1248106956482,,,0,,0,
STOP_15757,,Eje Central Lázaro Cárdenas - Frente Metro Politécnico,,19.500536402779836,-99.1495943069458,,,0,,0,
STOP_15758,,Eje 6 Sur Avenida De Las Torres - Oaxaca,,19.34911855126112,-99.0026307106018,,,0,,0,
STOP_15759,,Eje Central Lázaro Cárdenas - Avenida Montevideo,,19.49345685916952,-99.14676189422607,,,0,,0,
STOP_15760,,Eje Central Lázaro Cárdenas - Frente Metro Instituto del Petroleo,,19.489876514922976,-99.14541006088257,,,0,,0,
STOP_15761,,Eje 6 Sur Avenida De Las Torres - Pino,,19.348835111438497,-99.00134325027466,,,0,,0,
STOP_15762,,Eje 6 Sur Avenida De Las Torres - San Ignacio,,19.348490933849085,-98.99950861930847,,,0,,0,
STOP_15763,,Prolongación División Del Norte - Felipe Ángeles,Bajo Puente Peatonal ,19.279347150627796,-99.12334084510803,,,0,,0,
STOP_15764,,Eje Central Lázaro Cárdenas - Frente a Tesoreria,,19.485608317473627,-99.14365053176878,,,0,,0,
STOP_15766,,Eje Central Lázaro Cárdenas - Poniente 118,,19.480631983139844,-99.14169788360596,,,0,,0,
STOP_15768,,Eje 7 Sur Félix Cuevas - Adolfo Prieto,,19.37236906198711,-99.17243599891661,,,0,,0,
STOP_15770,,Eje Central Lázaro Cárdenas - Poniente 112,,19.476849057597203,-99.14021730422974,,,0,,0,
STOP_15771,,Eje 6 Sur Avenida De Las Torres - Pípila,,19.347731716011307,-98.99569988250732,,,0,,0,
STOP_15773,,Eje 7 Sur Félix Cuevas - Moras,,19.372723310556072,-99.17407751083374,,,0,,0,
STOP_15774,,Eje 7 Sur Félix Cuevas - San Francisco,,19.37306743699991,-99.17550444602966,,,0,,0,
STOP_15775,,Eje 7 Sur Félix Cuevas - Manzanas,,19.3735937466259,-99.17814373970032,,,0,,0,
STOP_15776,,Eje 7 Sur Félix Cuevas - Insurgentes,,19.373775930331117,-99.17879819869995,,,0,,0,
STOP_15777,,Cierre de Circuito Metro La Raza - Frente al Metro La Raza,,19.46905028796832,-99.13645148277283,,,0,,0,
STOP_15778,,Eje 7 Sur  Extremadura - Jerez,,19.374413571695236,-99.18175935745238,,,0,,0,
STOP_15779,,Prolongación División Del Norte - Plan De La Noria,Bajando las escalinatas del Puente Peatonal,19.276774830970865,-99.12186026573181,,,0,,0,
STOP_15780,,Eje 6 Sur Avenida De Las Torres - La Rosa,,19.347002863563656,-98.99204134941101,,,0,,0,
STOP_15781,,Eje 7 Sur Extremadura - Poussin,,19.375466180550678,-99.1855788230896,,,0,,0,
STOP_15783,,Eje 6 Sur Avenida De Las Torres - Noche Buena,,19.34678015799976,-98.99094700813293,,,0,,0,
STOP_15785,,Prolongación División Del Norte - Avenida De La Noria,Parabus con Nombre de San Bernardino,19.274799991228484,-99.1207230091095,,,0,,0,
STOP_15786,,Eje 6 Sur Avenida De Las Torres - Las Américas,,19.346435976075927,-98.98914456367493,,,0,,0,
STOP_15787,,Terminal Cetram Metro Mixcoac,,19.375769816456735,-99.18798208236694,,,0,,0,
STOP_15789,,Eje 6 Sur Avenida De Las Torres - Juan De La Barrera,,19.34544391823381,-98.9833402633667,,,0,,0,
STOP_15791,,Autopista México/Puebla - La Virgen,,19.342184257150166,-98.97797584533691,,,0,,0,
STOP_15792,,Autopista México - Puebla - La Escondida,,19.339653419491874,-98.97642016410826,,,0,,0,
STOP_15796,,Eje 10 Sur - Eje 10 Sur,,19.322057951799128,-98.9589750766754,,,0,,0,
STOP_15797,,Terminal Hospital Psiquiátrico,Santa Catarina,19.32121761449787,-98.95927548408508,,,0,,0,
STOP_15799,,Cierre de Circuito Metro La Raza - Donizetti,,19.46895924953083,-99.13631200790405,,,0,,0,
STOP_15801,,Eje Central Lázaro Cárdenas - Clave,,19.466511307927366,-99.13741707801819,,,0,,0,
STOP_15802,,Eje Central Lázaro Cárdenas - Poniente 112,,19.476687219239885,-99.13948774337769,,,0,,0,
STOP_15803,,Eje Central Lázaro Cárdenas - Frente Central Camionera Del Norte,,19.479155236621846,-99.14039969444275,,,0,,0,
STOP_15805,,Eje Central Lázaro Cárdenas - Puente de Fortuna,,19.486437691662218,-99.14313554763794,,,0,,0,
STOP_15806,,Eje Central Lázaro Cárdenas - Ricarte,,19.490190051057404,-99.14463758468627,,,0,,0,
STOP_15807,,Eje Central Lázaro Cárdenas - Montevideo,,19.493335492864674,-99.14590358734131,,,0,,0,
STOP_15808,,Eje Central Lázaro Cárdenas - Buenavista,,19.49660223749289,-99.14713740348816,,,0,,0,
STOP_15809,,Eje Central Lázaro Cárdenas - Frente Metro Politécnico,,19.500789237894587,-99.14880037307739,,,0,,0,
STOP_15811,,Eje Central Lázaro Cárdenas - Othón De Mendizábal,,19.50489522484378,-99.15047407150269,,,0,,0,
STOP_15812,,Prolongación División Del Norte - Guadalupe I. Ramírez,100 metros después del Banco BBVA ,19.266556044175417,-99.11597013473511,,,0,,0,
STOP_15813,,Prolongación División Del Norte - Avenida México,Parabus en la Esquina de la Calle,19.2646722339437,-99.11491870880127,,,0,,0,
STOP_15816,,Prolongación División Del Norte - Redención,En el semáforo y es como glorieta,19.257319090100236,-99.11060571670532,,,0,,0,
STOP_15818,,Eje Central Lázaro Cárdenas - Margarita Maza de Juárez,,19.508333655895825,-99.15183663368225,,,0,,0,
STOP_15819,,Eje 7 Sur Félix Cuevas - Moras,,19.372611975374532,-99.17427062988281,,,0,,0,
STOP_15821,,Eje Central Lázaro Cárdenas - Júpiter,,19.511428181339483,-99.15301680564879,,,0,,0,
STOP_15830,,Anillo Periférico Canal de Garay - Puerta De Alameda Oriente,,19.43017222686738,-99.05260562896729,,,0,,0,
STOP_15833,,Prolongación 16 De Septiembre - Capulines,A un costado de la Estación de Bomberos ,19.250522709428765,-99.10636782646179,,,0,,0,
STOP_15837,,Anillo Periférico Canal de Garay - Bordo De Xochiaca,,19.430131755649537,-99.05277729034424,,,0,,0,
STOP_15839,,Anillo Periférico Canal de Garay - Chimalpopoca,,19.426600603072533,-99.05431151390076,,,0,,0,
STOP_15840,,Prolongación 16 De Septiembre - Madre Selva,Frente a Conjunto Habitacion ,19.24723076958696,-99.10387873649597,,,0,,0,
STOP_15843,,Anillo Periférico Canal de Garay - Chimalhuacan,,19.422350976718793,-99.05573844909668,,,0,,0,
STOP_15850,,Nueva Carretera Xochimilco - Tulyehualco - Zacapa ,Frente a la Montada de la SSP,19.247109219774654,-99.09473776817322,,,0,,0,
STOP_15852,,Anillo Periférico Canal de Garay - Privada Beltrán,,19.4198922135747,-99.05627489089966,,,0,,0,
STOP_15854,,Anillo Periférico Canal de Garay - Unión,,19.415966210122026,-99.05670404434204,,,0,,0,
STOP_15856,,Anillo Periférico Canal de Garay - Xochimilco,,19.41314307171218,-99.05699372291564,,,0,,0,
STOP_15857,,Eje Central Lázaro Cárdenas - Frente Discos Gas,,19.513096773424664,-99.15367126464844,,,0,,0,
STOP_15859,,Eje Central Lázaro Cárdenas - Avenida Progreso Nacional,,19.517829413645817,-99.1559886932373,,,0,,0,
STOP_15860,,Eje Central Lázaro Cárdenas - Calle 28,,19.52007433555481,-99.15684700012207,,,0,,0,
STOP_15861,,Eje Central Lázaro Cárdenas - Avenida Guadalupe,,19.521722614221108,-99.157555103302,,,0,,0,
STOP_15862,,Luis Espinoza - Frente Centro Comercial Chedrahui,,19.528952595020904,-99.15525913238525,,,0,,0,
STOP_15863,,Anillo Periférico Canal de Garay - Privada Gozález Bocanegra,,19.410218693855445,-99.05743360519409,,,0,,0,
STOP_15864,,Luis Espinoza - Frente Centro Comercial Wal-Mart,,19.530954686344387,-99.15485143661499,,,0,,0,
STOP_15865,,Anillo Periférico Canal de Garay - Joaquín Cisneros,,19.403904286867043,-99.05802369117737,,,0,,0,
STOP_15866,,Luis Espinoza - Desarrollo Profesional,,19.533512878032756,-99.15526986122131,,,0,,0,
STOP_15867,,Anillo Periférico Canal de Garay - Mercado De San Juan,,19.40173871263459,-99.05813097953796,,,0,,0,
STOP_15869,,Anillo Periférico Canal de Garay - Sur 14 - C,,19.393005286659196,-99.05935406684875,,,0,,0,
STOP_15870,,Anillo Periférico Canal de Garay - Sur 20,,19.390616921702083,-99.05972957611084,,,0,,0,
STOP_15872,,Anillo Periférico Canal de Garay - Sur 22,,19.38680153718548,-99.06038403511047,,,0,,0,
STOP_15873,,Avenida Benito Juárez - Pedro Ferriz,,19.53794158839256,-99.15566682815552,,,0,,0,
STOP_15874,,Anillo Periférico Canal de Garay - Sur 28,,19.384362477955296,-99.0608024597168,,,0,,0,
STOP_15875,,Avenida Cuatepec - Alfredo del Mazo,,19.54003456677332,-99.15393948554993,,,0,,0,
STOP_15877,,Francisco Villa - Antonio Roanova,,19.53998401205974,-99.15220141410828,,,0,,0,
STOP_15878,,Anillo Periférico Canal de Garay - Eje 5 Sur,,19.37663011511744,-99.06009435653685,,,0,,0,
STOP_15879,,Anillo Periférico Canal de Garay - Eje 5 Sur,,19.375152422853276,-99.0596866607666,,,0,,0,
STOP_15881,,Anillo Periférico Canal de Garay - Price Shoes,,19.372551247061633,-99.0588390827179,,,0,,0,
STOP_15882,,Anillo Periférico Canal de Garay - Contel,,19.36666049314722,-99.05696153640747,,,0,,0,
STOP_15884,,Francisco Villa - Gabino Barreda,,19.54148042488033,-99.1506564617157,,,0,,0,
STOP_15887,,Anillo Periférico Canal de Garay - Eje 6 Sur Luis Méndez,,19.363431621894424,-99.05735850334167,,,0,,0,
STOP_15888,,Anillo Periférico Canal de Garay - Antonio Soto Y Gama,,19.359939510471946,-99.05820608139038,,,0,,0,
STOP_15889,,Francisco Villa - Jaime Nunó,,19.543381253596557,-99.14866089820862,,,0,,0,
STOP_15893,,Anillo Periférico Canal de Garay - Registro Civil,,19.355738755615924,-99.05913949012756,,,0,,0,
STOP_15895,,Jaime Nunó - Avenida Morelos,,19.545817921497775,-99.15282368659973,,,0,,0,
STOP_15896,,Anillo Periférico Canal de Garay - Revolución Social,,19.353400457243325,-99.05975103378296,,,0,,0,
STOP_15898,,Avenida Morelos - Guadalupe,,19.54777936187868,-99.15160059928894,,,0,,0,
STOP_15900,,Avenida Morelos - Querétaro,,19.548749962734103,-99.15114998817444,,,0,,0,
STOP_15901,,Anillo Periférico Canal de Garay - Hilario Medina,,19.351274702363334,-99.06036257743835,,,0,,0,
STOP_15904,,Avenida Morelos - Estado de México,,19.55299627282908,-99.14856433868407,,,0,,0,
STOP_15906,,Anillo Periférico Canal de Garay - Porfirio Castillo,,19.34843019655205,-99.06084537506104,,,0,,0,
STOP_15908,,Anillo Periférico Canal de Garay - Betabel,,19.342072901118474,-99.06250834465027,,,0,,0,
STOP_15912,,Anillo Periférico Canal de Garay - Eugenio Girón,,19.33901564221225,-99.06452536582947,,,0,,0,
STOP_15913,,Anillo Periférico Canal de Garay - Iztacihuatl,,19.334196800018617,-99.064621925354,,,0,,0,
STOP_15923,,Anillo Periférico Canal de Garay - Bella Vista,,19.33036997108996,-99.06654238700865,,,0,,0,
STOP_15925,,Zacapa - Camino a Nativitas,En la esquina de la Calle,19.248142390309354,-99.0942120552063,,,0,,0,
STOP_15926,,Estado de México - Deportivo Carmen Serdán,,19.552510985903183,-99.14697647094727,,,0,,0,
STOP_15927,,18 de Marzo - 13 de Marzo,,19.552632307771518,-99.1450023651123,,,0,,0,
STOP_15928,,18 de Marzo - Francisco Granados,,19.55532158575894,-99.14491653442383,,,0,,0,
STOP_15930,,Anillo Periférico Canal de Garay - Sabadel,,19.328638757118107,-99.06798005104065,,,0,,0,
STOP_15931,,Camino A Nativitas- Mercado,Frente a la Salida de las Unidades del la rtp a Alameda Oriente,19.250117551166277,-99.09458756446838,,,0,,0,
STOP_15935,,Anillo Periférico Canal de Garay - Bilbao,,19.327089760643286,-99.06912803649902,,,0,,0,
STOP_15937,,18 de Marzo - Cerrada Puerto Marfil,,19.56163009199051,-99.14169788360596,,,0,,0,
STOP_15938,,18 de Marzo - Cometa,,19.562600609507104,-99.1421914100647,,,0,,0,
STOP_15939,,José Rolón - Cierre de Circuito El Charco,,19.562893785524725,-99.14198756217957,,,0,,0,
STOP_15941,,Camino A Nativitas- Madre Selva,En la esquina de la Calle,19.25136340963134,-99.09935116767883,,,0,,0,
STOP_15942,,Anillo Periférico Canal de Garay - Reclusorio Ote.,,19.32276666664584,-99.07248616218567,,,0,,0,
STOP_15944,,José Rolon - Acueducto,,19.562944333060095,-99.14160132408142,,,0,,0,
STOP_15946,,Anillo Periférico Canal de Garay - Avenida Tláhuac,,19.3192028122837,-99.07535076141357,,,0,,0,
STOP_15952,,Camino A Nativitas - 5 De Mayo,Frente al Centro de Salud de Xochimilco,19.254908483579246,-99.10412549972534,,,0,,0,
STOP_15953,,Anillo Periférico Canal de Garay - Jacarandas,,19.31544650666277,-99.07822608947754,,,0,,0,
STOP_15956,,Anillo Periférico Canal de Garay - Villa Camacho Sedena ,,19.311042103075014,-99.0825605392456,,,0,,0,
STOP_15959,,Anillo Periférico Canal de Garay - Calle 20,,19.307842507908703,-99.08511400222777,,,0,,0,
STOP_15960,,Anillo Periférico Canal de Garay - Canal De Chalco,,19.305230133789397,-99.08732414245605,,,0,,0,
STOP_15962,,Anillo Periférico Canal de Garay - Parque Ecológico Xochimilco I,,19.29860788223527,-99.09398674964905,,,0,,0,
STOP_15971,,Anillo Periférico Boulevard Adolfo Ruiz Cortinez - Cafetales,,19.28998032681341,-99.11423206329346,,,0,,0,
STOP_15973,,Anillo Periférico Boulevard Adolfo Ruiz Cortinez - Hacienda Glorieta De Vaqueritos,,19.28584866037553,-99.12389874458313,,,0,,0,
STOP_15974,,Prolongación División Del Norte - Avenida México,Frente a Tienda de Colchas,19.26428736682462,-99.11426424980164,,,0,,0,
STOP_15975,,Prolongación División Del Norte - Guadalupe I. Ramírez,Bajo Puente a 200 metros del Sanbors ,19.265674909826334,-99.11502599716185,,,0,,0,
STOP_15979,,Prolongación División Del Norte - Plan De La Noria,Bajo Puente ,19.276774830970865,-99.12145256996153,,,0,,0,
STOP_15980,,Prolongación División Del Norte - Villa De Ayala,Bajo Puente,19.279256006133387,-99.12286877632141,,,0,,0,
STOP_15985,,Prolongación División Del Norte - Periférico,Parabus Enfrente de la Plaza Vaqueritos,19.282618191687725,-99.12482142448425,,,0,,0,
STOP_15990,,Canal de Miramontes - El Farol,En la esquina de la Calle,19.288167672267722,-99.12584066390991,,,0,,0,
STOP_15993,,Prolongación División Del Norte - San Bernardino,,19.273513800750155,-99.12002563476562,,,0,,0,
STOP_15994,,Prolongación División Del Norte - Condominio San Marcos,,19.26799420730627,-99.11671042442322,,,0,,0,
STOP_15995,,CETRAM Metro Rosario,,19.504500811902894,-99.20126438140869,,,0,,0,
STOP_16001,,Canal de Miramontes - La Vereda,Bajo Puente Peatonal a un costado de la Bodega Aurrera ,19.290942342022927,-99.1256046295166,,,0,,0,
STOP_16002,,Cierre de Circuito Zacatenco - Cerro del Chiquihuite,,19.5192855827615,-99.12887692451477,,,0,,0,
STOP_16003,,Chiquihuite - Cerrada del Triunfo,,19.52001366239968,-99.12771821022034,,,0,,0,
STOP_16004,,Chiquihuite - Santa Cruz,,19.52001366239968,-99.12646293640137,,,0,,0,
STOP_16005,,Santa Cruz - La Presa,,19.520023774593785,-99.12547588348389,,,0,,0,
STOP_16006,,Acoxpa - La Vereda,Enfrente del Wal-Mart,19.291985362651737,-99.12412405014038,,,0,,0,
STOP_16008,,Avenida Acueducto - 30 de Junio de 1520,,19.51732379630117,-99.12723541259766,,,0,,0,
STOP_16013,,Avenida Acueducto - Vidrio Plano,,19.513015872387445,-99.12431716918945,,,0,,0,
STOP_16016,,Avenida de las Culturas - Cultura Norte,,19.511428181339472,-99.19679045677185,,,0,,0,
STOP_16017,,Acoxpa - Cerrada Acoxpa,Parabus frente a TELMEX,19.290314501158605,-99.11972522735596,,,0,,0,
STOP_16018,,Prolongación División Del Norte - 20 De Noviembre,,19.26188699098167,-99.11318063735962,,,0,,0,
STOP_16019,,Avenida Acueducto - Avenida Instituto Politécnico Nacional,,19.511094460856135,-99.12457466125487,,,0,,0,
STOP_16022,,Acoxpa - El Portillo,Frente a rejas verdes,19.289524633425145,-99.11762237548828,,,0,,0,
STOP_16023,,Francisco Goitia - Gladiolas,,19.256377134626632,-99.10861015319824,,,0,,0,
STOP_16026,,Francisco Goitia - 16 De Septiembre,,19.25554658875336,-99.10587430000305,,,0,,0,
STOP_16028,,Avenida Instituto Politécnico Nacional - CINVESTAV (PTA. PRINCIPAL),,19.508141510206567,-99.12761092185974,,,0,,0,
STOP_16029,,Hacienda Mazatepec - Cafetales,Bajo Puente Vehicular  en el semáforo ,19.2896967844098,-99.11541223526001,,,0,,0,
STOP_16031,,Avenida Instituto Politécnico Nacional - Ticomán,,19.505876196449186,-99.12983179092406,,,0,,0,
STOP_16032,,Terminal Bosque De Nativitas,,19.249631359930643,-99.09459829330444,,,0,,0,
STOP_16036,,Avenida Instituto Politécnico Nacional - Frente Escuela ESFM,,19.501396040557893,-99.1317093372345,,,0,,0,
STOP_16040,,Cafetales - Calzada Del Hueso,En la Esquina Defrente a Muebles Dico,19.30106847488952,-99.11369562149046,,,0,,0,
STOP_16043,,Avenida Instituto Politécnico Nacional - Frente Escuela CENAC,,19.497674281730745,-99.13239598274231,,,0,,0,
STOP_16044,,Armada De México - Rancho Estopila,200 metros antes del Banco Banamex,19.303893554151472,-99.11234378814697,,,0,,0,
STOP_16045,,Avenida Instituto Politécnico Nacional - Wilfrido Massieu,,19.49421539651284,-99.13299679756165,,,0,,0,
STOP_16046,,Avenida Instituto Politécnico Nacional - Otavalo,,19.49295116563236,-99.13315773010254,,,0,,0,
STOP_16048,,Avenida Instituto Politécnico Nacional - Montevideo,,19.490756437373857,-99.13359761238097,,,0,,0,
STOP_16050,,Avenida Instituto Politécnico Nacional - Colector 13,,19.487782887105787,-99.13415551185608,,,0,,0,
STOP_16051,,Armada De México - Rancho Vista Hermosa,Parabus Frente a un Auto Lavado,19.306232561350324,-99.1120433807373,,,0,,0,
STOP_16054,,Avenida Instituto Politécnico Nacional - Frente IMSS,,19.485608317473627,-99.13460612297057,,,0,,0,
STOP_16056,,Armada De México - Hacienda Santo Tómas,100 metros antes de la esquina,19.308470281517103,-99.11112070083618,,,0,,0,
STOP_16057,,Bosque De Nativitas,,19.249540198913554,-99.09454464912415,,,0,,0,
STOP_16059,,Armada De México - Calzada De Las Bombas,Parabus a 200 metros antes de la esquina con Calzada de las Bombas,19.310363713127106,-99.11072373390198,,,0,,0,
STOP_16062,,Armada De México - Tepetlapa,Frente a Clinica Particular ,19.315892002946246,-99.11162495613098,,,0,,0,
STOP_16067,,Prolongación División Del Norte - Margaritas,,19.256802534542707,-99.10910367965697,,,0,,0,
STOP_16068,,Prolongación División Del Norte - 20 De Noviembre,,19.260965318345978,-99.11232233047485,,,0,,0,
STOP_16070,,Armada De México - Hacienda Chinameca,,19.318585204620994,-99.1124939918518,,,0,,0,
STOP_16072,,Prolongación División Del Norte - Unidad Habitacional Rosalina,,19.26900699067118,-99.11692500114441,,,0,,0,
STOP_16073,,Carlota Armero - Calzada De La Virgen,Parabus 100 metro antes de la esquina ,19.320913877060693,-99.11401748657227,,,0,,0,
STOP_16074,,Prolongación División Del Norte - San Bernardino,,19.273453035595903,-99.11951065063477,,,0,,0,
STOP_16122,,Avenida de las Culturas - Eje 5 norte,,19.51034611545018,-99.1921555995941,,,0,,0,
STOP_16184,,Carlota Armero - Manuela Sáenz,En la esquina de la Calle,19.323748737852483,-99.11421060562134,,,0,,0,
STOP_16191,,Avenida Juárez - Juan de la Barrera,,19.509537089493882,-99.18733835220337,,,0,,0,
STOP_16193,,Carlota Armero - Mariquita Sánchez,En la Esquina de la Calle,19.326593673699733,-99.11395311355591,,,0,,0,
STOP_16195,,Avenida Benito Juárez - Niños Héroes,,19.509021333334157,-99.18607234954833,,,0,,0,
STOP_16198,,Carlota Armero - Santa Ana,Frente al TRIFE,19.328081930010956,-99.11345958709717,,,0,,0,
STOP_16209,,Avenida Benito Juárez - Independencia,,19.508050493747763,-99.18374419212341,,,0,,0,
STOP_16213,,Arneses - Calzada Taxqueña,Frente a Farmacia,19.338276627327602,-99.11280512809753,,,0,,0,
STOP_16271,,Arneses - Ganaderos,En la Esquina de la Calle ,19.349442481884072,-99.11083102226257,,,0,,0,
STOP_16281,,Arneses - Campesinos,En la esquina de la Calle,19.35277285630346,-99.11046624183655,,,0,,0,
STOP_16309,,Calzada Ermita Iztapalapa - Fragonard,,19.374990483160136,-99.18468832969666,,,0,,0,
STOP_16311,,Eje 7 Sur Extremadura - Insurgentes,,19.37369495982062,-99.17933464050293,,,0,,0,
STOP_16315,,16315,,19.373452048047675,-99.17837977409363,,,0,,0,
STOP_16319,,Arneses - Eje 8 Sur Calzada Ermita - Iztapalapa,Frente del KFC,19.35606267309335,-99.11123871803282,,,0,,0,
STOP_16325,,Eje 7 Sur Félix Cuevas - San Francisco,,19.37288525250253,-99.17571902275084,,,0,,0,
STOP_16343,,Avenida 5 - Eje 4 Oriente Avenida Río Churubusco,Bajando las escalinatas del Puente Peatonal,19.369676747696225,-99.1080629825592,,,0,,0,
STOP_16345,,Eje 7 Sur Félix Cuevas - Coyoacán,,19.37179214124073,-99.1710841655731,,,0,,0,
STOP_16346,,Eje 3 Oriente Francisco Del Paso Y Troncoso - Eje 6 Sur Trabajadores Sociales,,19.37386702210735,-99.10796642303467,,,0,,0,
STOP_16352,,Eje 7 Sur Félix Cuevas - Gabriel Mancera,,19.371255704328203,-99.16815519332886,,,0,,0,
STOP_16353,,Avenida Camarón	Manuel J. Tello,,19.42454663087975,-99.07041549682617,,,0,,0,
STOP_16355,,Eje 7 Sur Félix Cuevas - Nicolás San Juan,,19.370901452568802,-99.16662096977234,,,0,,0,
STOP_16356,,Eje 7 Sur Félix Cuevas - Universidad,,19.370537078527185,-99.16514039039612,,,0,,0,
STOP_16357,,Emiliano Zapata - México Coyoacán,,19.370051245204383,-99.16347742080688,,,0,,0,
STOP_16358,,Avenida Camarón -	González Blanco,,19.4243442676822,-99.06884908676147,,,0,,0,
STOP_16359,,Emiliano Zapata - Cuauhtémoc,,19.369028966191067,-99.16180372238159,,,0,,0,
STOP_16360,,Emiliano Zapata - Uxmal,,19.367328527490386,-99.15952920913696,,,0,,0,
STOP_16362,,Emiliano Zapata - Tajín,,19.36651878854064,-99.15802717208862,,,0,,0,
STOP_16367,,Emiliano Zapata - División Del Norte,,19.366134161130383,-99.15576338768005,,,0,,0,
STOP_16368,,Avenida Camarón -	Eje 4 Oriente Avenida Río Churubusco,,19.424060958782214,-99.06698226928711,,,0,,0,
STOP_16369,,Emiliano Zapata - Tokio,,19.36582038546561,-99.1533601284027,,,0,,0,
STOP_16370,,Eje 3 Oriente Francisco Del Paso Y Troncoso - Radiólogos,Parabus en la esquina de la Calle,19.376468176893095,-99.10825610160828,,,0,,0,
STOP_16371,,Emiliano Zapata - Eje Central Lázaro Cárdenas,,19.365415512747642,-99.15087103843689,,,0,,0,
STOP_16372,,Emiliano Zapata - Canarias,,19.364909420436113,-99.14765238761902,,,0,,0,
STOP_16373,,Eje 3 Oriente Francisco Del Paso Y Troncoso - Santa María Purísima,A 100 metros de las Escalinatas de la Estación del Metro Apatlaco Linea-8,19.379312193545854,-99.10982251167297,,,0,,0,
STOP_16374,,Emiliano Zapata - Balboa,,19.364534911114053,-99.14523839950562,,,0,,0,
STOP_16377,,Eje 3 Oriente Francisco Del Paso Y Troncoso - Apatlaco,Parabus en la esquina de la Calle,19.38157927445537,-99.11073446273802,,,0,,0,
STOP_16385,,Eje 3 Oriente Francisco Del Paso Y Troncoso - Avenida de las Torres,Parabus en la esquina de la Calle,19.384595252819803,-99.1115391254425,,,0,,0,
STOP_16386,,Jaime Nunó - Cuatepec,,19.54488774556127,-99.15107488632202,,,0,,0,
STOP_16391,,Anillo de Circunvalación - Coxcox,,19.422320621845042,-99.0578842163086,,,0,,0,
STOP_16402,,Anillo de Circunvalación - Calle 2,,19.4237978857899,-99.06560897827148,,,0,,0,
STOP_16412,,Anillo de Circunvalación - Calle 3,,19.42357528523296,-99.06423568725586,,,0,,0,
STOP_16416,,Anillo de Circunvalación	- Calle 4,,19.42327173852749,-99.06241178512572,,,0,,0,
STOP_16417,,Estado de México - 13 de Marzo,,19.55200547713644,-99.14532423019409,,,0,,0,
STOP_16418,,Anillo de Circunvalación	- Calle 5,,19.42310984671937,-99.06112432479857,,,0,,0,
STOP_16419,,Anillo de Circunvalación - Calle 6,,19.422887245219854,-99.05998706817627,,,0,,0,
STOP_16420,,Emiliano Zapata - Plutarco Elías Calles,,19.363472109704194,-99.13884401321411,,,0,,0,
STOP_16428,,Oriente 172 - Sur 69 - A,,19.363178572855645,-99.13651585578918,,,0,,0,
STOP_16429,,Frente a la UACM,,19.56011364667667,-99.14335012435913,,,0,,0,
STOP_16430,,Oriente 173 - Sur 73,,19.36136673026454,-99.13439154624939,,,0,,0,
STOP_16434,,Calzada Ermita Iztapalapa - Cruz Del Sur,,19.35819848785413,-99.12805080413818,,,0,,0,
STOP_16435,,Eje 3 Oriente Francisco Del Paso Y Troncoso - Del Recreo,,19.394887617396666,-99.11365270614624,,,0,,0,
STOP_16436,,Calzada Ermita Iztapalapa - La Viga,,19.357500049138164,-99.12207484245299,,,0,,0,
STOP_16437,,Calzada Ermita Iztapalapa - Avena,,19.357408948215546,-99.11927461624146,,,0,,0,
STOP_16438,,18 de Marzo - 100 Metros,,19.562236666122935,-99.14221286773682,,,0,,0,
STOP_16439,,Calzada Ermita Iztapalapa - Maíz,,19.356710506118255,-99.11535859107971,,,0,,0,
STOP_16441,,Azúcar - Centeno,,19.401708353912404,-99.11340594291687,,,0,,0,
STOP_16443,,Azúcar - Añil,,19.404815033773502,-99.11338448524475,,,0,,0,
STOP_16444,,Calzada Ermita Iztapalapa - Arneses,,19.35634610035838,-99.11163568496704,,,0,,0,
STOP_16446,,Calzada Ermita Iztapalapa - Las Trojes,,19.35622463159082,-99.10966157913208,,,0,,0,
STOP_16447,,Coxcox - Chimalpopoca,,19.427703464126083,-99.05717611312865,,,0,,0,
STOP_16448,,Eje 3 Oriente Francisco Del Paso Y Troncoso - Avenida Morelos,,19.408053203696003,-99.11303043365479,,,0,,0,
STOP_16452,,Calzada Ermita Iztapalapa - Sur 125 - A,,19.356052550681902,-99.1081380844116,,,0,,0,
STOP_16454,,Eje 3 Oriente Francisco Del Paso Y Troncoso - Lorenzo Boturini,,19.41692748262074,-99.11266565322876,,,0,,0,
STOP_16457,,Calzada Ermita Iztapalapa - Avenida Tláhuac,,19.355819735045586,-99.10600304603575,,,0,,0,
STOP_16462,,Calzada Ermita Iztapalapa - Aurrera,,19.355667898581984,-99.10381436347961,,,0,,0,
STOP_16466,,Coxcox	- Xochitlán Norte,,19.428492662852893,-99.0561032295227,,,0,,0,
STOP_16468,,Calzada Ermita Iztapalapa - Metro Atlalilco,,19.355516061977035,-99.10148620605469,,,0,,0,
STOP_16470,,Eje 3 Oriente Francisco Del Paso Y Troncoso - Cecilio Robelo,,19.424364504013308,-99.11187171936035,,,0,,0,
STOP_16472,,Calzada Ermita Iztapalapa - Puente Titla,,19.35532373540785,-99.0987718105316,,,0,,0,
STOP_16473,,Cecilio Róbelo - M. Rivera Cambas,,19.422300385259405,-99.10818099975586,,,0,,0,
STOP_16475,,Calzada Ermita Iztapalapa - Convento,,19.3556375312723,-99.0951669216156,,,0,,0,
STOP_16477,,Calzada Ermita Iztapalapa - San Felipe,,19.356022183443848,-99.09205555915833,,,0,,0,
STOP_16480,,Xochitlán - Norte	Xiutetelco,,19.429362800594642,-99.05683279037474,,,0,,0,
STOP_16482,,Calzada Ermita Iztapalapa - Estrella,,19.356265121190056,-99.08995270729065,,,0,,0,
STOP_16487,,Calzada Ermita Iztapalapa - Rojo Gómez,,19.356467569035473,-99.08743143081664,,,0,,0,
STOP_16488,,Xochitlán  - Norte	Xocoyote,,19.430536467374147,-99.0576696395874,,,0,,0,
STOP_16492,,Xocoyote	- Xochitlán Sur,,19.430920942578485,-99.05891418457031,,,0,,0,
STOP_16493,,Calzada Ermita Iztapalapa - San Lorenzo,,19.35576912290675,-99.0858542919159,,,0,,0,
STOP_16497,,Calzada Ermita Iztapalapa - Fundición,,19.352408441746473,-99.07864451408386,,,0,,0,
STOP_16499,,Calzada Ermita Iztapalapa - San Lorenzo,,19.350758443426383,-99.07513618469238,,,0,,0,
STOP_16503,,Calzada Ermita Iztapalapa - Margarita,,19.34763048669935,-99.06803369522095,,,0,,0,
STOP_16506,,Calzada Ermita Iztapalapa - Metro Constitución De 1917,,19.345484410508696,-99.0637421607971,,,0,,0,
STOP_16508,,Calzada Ermita Iztapalapa - El Manto,,19.34329781328871,-99.0588068962097,,,0,,0,
STOP_16509,,Calzada Ermita Iztapalapa - Manuel Acuña,,19.34170846266542,-99.0541398525238,,,0,,0,
STOP_16512,,Calzada Ermita Iztapalapa - Altamirano,,19.342244996771804,-99.04777765274048,,,0,,0,
STOP_16513,,Calzada Ermita Iztapalapa - Guadalupe Vict,,19.342599310780816,-99.04395818710327,,,0,,0,
STOP_16571,,Rivera Cambas - Calzada Ignacio Zaragoza,,19.42464781238401,-99.10636782646179,,,0,,0,
STOP_16577,,Calzada Ignacio Zaragoza - W. Martín Del Campo,,19.427015441594985,-99.10985469818115,,,0,,0,
STOP_16589,,Calzada Ermita Iztapalapa - Calle 17,,19.343368675694965,-99.03619050979614,,,0,,0,
STOP_16591,,Calzada Ermita Iztapalapa - Cuitláhuac,,19.342963747244852,-99.04069662094115,,,0,,0,
STOP_16592,,Calzada Ermita Iztapalapa - Pozos,,19.343550893169763,-99.03424859046936,,,0,,0,
STOP_16593,,Santa Ana - Tarahumaras,,19.328891859721168,-99.11726832389832,,,0,,0,
STOP_16594,,Calzada Ermita Iztapalapa - Zacapexco,,19.343945697000603,-99.03104066848755,,,0,,0,
STOP_16596,,Calzada Ermita Iztapalapa - Vocacional 7,,19.344249391605224,-99.02732849121094,,,0,,0,
STOP_16597,,Calzada Ermita Iztapalapa - Camino A Minas,,19.34508961040011,-99.02105212211609,,,0,,0,
STOP_16598,,Calzada Ermita Iztapalapa - Primavera,,19.349857517054847,-99.01767253875731,,,0,,0,
STOP_16599,,Calzada Ermita Iztapalapa - Avenida Las Torres,,19.352013658391105,-99.01521563529967,,,0,,0,
STOP_16600,,Escuela Naval Militar - Úrsula Galván,,19.32849701948911,-99.12460684776306,,,0,,0,
STOP_16601,,Calzada Ermita Iztapalapa - Octavio Senties,,19.353157515230453,-99.01259779930113,,,0,,0,
STOP_16603,,Calzada Ermita Iztapalapa - Penitenciaria,,19.353633276332804,-99.01138544082642,,,0,,0,
STOP_16604,,Escuela Naval Militar - Reforma Agraria,,19.325560998087543,-99.12485361099243,,,0,,0,
STOP_16605,,Calzada Ermita Iztapalapa - Doce Metros,,19.35431148656912,-99.00978684425354,,,0,,0,
STOP_16606,,Calzada Ermita Iztapalapa - Hidalgo,,19.356012061029894,-99.00558114051819,,,0,,0,
STOP_16610,,Escuela Naval Militar - Calzada De La Virgen,,19.32231106459724,-99.12513256072998,,,0,,0,
STOP_16611,,Escuela Naval Militar - Tepetlapa,,19.316712117929644,-99.12409186363219,,,0,,0,
STOP_16614,,Generalisimo Morelos - Carretera Federal México - Puebla,,19.358745089980108,-98.9924168586731,,,0,,0,
STOP_16620,,Eje 1 Oriente Avenida Canal de Miramontes - Rancho Mante,,19.30806526656172,-99.12440299987793,,,0,,0,
STOP_16626,,Eje 1 Oriente Avenida Canal de Miramontes - Monza,,19.30054193142545,-99.12508964538574,,,0,,0,
STOP_16628,,Eje 1 Oriente Avenida Canal de Miramontes - Cannes,,19.29731175270661,-99.12543296813965,,,0,,0,
STOP_16652,,Calzada Ermita Iztapalapa - Cuauhtémoc,,19.35672062848885,-99.00359630584717,,,0,,0,
STOP_16675,,Calzada Ermita Iztapalapa - Luis Cervantes,,19.358461666884242,-99.00076389312744,,,0,,0,
STOP_16682,,Calzada Ermita Iztapalapa - Santiago,,19.357692373140996,-99.00243759155273,,,0,,0,
STOP_16686,,Eje 1 Oriente Avenida Canal de Miramontes - Coaplaza,,19.296167504824744,-99.12550806999207,,,0,,0,
STOP_16691,,Eje 1 Oriente Avenida Canal de Miramontes - Acoxpa,,19.29324102915487,-99.12578701972961,,,0,,0,
STOP_16704,,Calzada Ermita Iztapalapa - Penitenciaria - 5 de Febrero,,19.354513936839417,-99.01044130325316,,,0,,0,
STOP_16711,,Eje 1 Oriente Avenida Canal de Miramontes - Coaplaza,,19.29361570197123,-99.12533640861511,,,0,,0,
STOP_16715,,Eje 1 Oriente Avenida Canal de Miramontes - Abrevadero,,19.29652191874082,-99.12508964538574,,,0,,0,
STOP_16717,,Eje 1 Oriente Avenida Canal de Miramontes - Siena,,19.30008626744454,-99.12474632263184,,,0,,0,
STOP_16719,,Eje 1 Oriente Avenida Canal de Miramontes - Parma,,19.30158489087165,-99.12460684776306,,,0,,0,
STOP_16720,,Eje 1 Oriente Avenida Canal de Miramontes - Calzada Del Hueso,,19.30297211788973,-99.12451028823853,,,0,,0,
STOP_16721,,Eje 1 Oriente Avenida Canal de Miramontes - Rancho Vista Hermosa,,19.306860341138634,-99.12412405014038,,,0,,0,
STOP_16722,,Eje 1 Oriente Avenida Canal de Miramontes - Alameda Sur,,19.309553691592274,-99.12388801574706,,,0,,0,
STOP_16724,,Eje 1 Oriente Avenida Canal de Miramontes - Calzada De Las Bombas,,19.311376234402864,-99.12422060966492,,,0,,0,
STOP_16726,,Eje 1 Oriente Avenida Canal de Miramontes - Escuela Naval Militar,,19.314990884207948,-99.12417769432068,,,0,,0,
STOP_16735,,Escuela Naval Militar - Los Coyotes,,19.31917243819091,-99.1245424747467,,,0,,0,
STOP_16750,,Escuela Naval Militar - Manuela Sáenz,,19.324275206584495,-99.12461757659912,,,0,,0,
STOP_16772,,Escuela Naval Militar - Pedro Díaz,,19.326279821998252,-99.12440299987793,,,0,,0,
STOP_16783,,Escuela Naval Militar - Santa Ana,,19.329549924653687,-99.12440299987793,,,0,,0,
STOP_16793,,Santa Ana - Roxana Sequeira,,19.329165210091958,-99.12042260169983,,,0,,0,
STOP_16799,,Santa Ana - Mercedes Abrego,,19.32835528173711,-99.11677479743958,,,0,,0,
STOP_16801,,Mercedes Abrego - Carlota Armero,,19.3262899462561,-99.11424279212952,,,0,,0,
STOP_16808,,Avenida Benito Juárez - San Pablo Xalpa,,19.50755495879567,-99.18244600296019,,,0,,0,
STOP_16879,,Michoacán Oriente - Sonora Norte,,19.192615458201967,-99.02299404144287,,,0,,0,
STOP_16880,,Sonora Norte - Nuevo León,,19.19635431337182,-99.02246832847594,,,0,,0,
STOP_16881,,Avenida Nuevo León - Yucatán,,19.19613140297855,-99.02026891708374,,,0,,0,
STOP_16882,,Avenida Nuevo León - Frente Facultad De Odontología,,19.197712033792097,-99.01525855064392,,,0,,0,
STOP_16883,,Boulevard José López Portillo - Tecoxpa,,19.200518629295708,-99.00835990905762,,,0,,0,
STOP_16884,,Boulevard José López Portillo - Avenida Del Trabajo,,19.203385968039008,-99.00316715240479,,,0,,0,
STOP_16889,,José María Morelos - Ignacio Allende,,19.21507770818173,-98.99407982826233,,,0,,0,
STOP_16891,,Benito Juárez - Miguel Hidalgo,,19.217549685411967,-98.99335026741028,,,0,,0,
STOP_16892,,Miguel Hidalgo - Gastón Melo,,19.221571634485016,-98.99279236793518,,,0,,0,
STOP_16893,,Centenario - Nextengo,,19.472499595536046,-99.18856143951416,,,0,,0,
STOP_16894,,Miguel Hidalgo - Narciso Mendoza,,19.225532702220832,-98.99339318275452,,,0,,0,
STOP_16898,,Boulevard José López Portillo - Caltenco,,19.230243310631284,-98.99423003196716,,,0,,0,
STOP_16900,,Boulevard José López Portillo - Cerrada Hidalgo,,19.231884394090297,-98.99448752403258,,,0,,0,
STOP_16903,,Eje 10 Sur - Entronque Autopista Puebla - México,,19.322138947937173,-98.9583420753479,,,0,,0,
STOP_16909,,Eje 10 Sur - Ixchel,,19.323586747132115,-98.9568293094635,,,0,,0,
STOP_16914,,Eje 10 Sur - Hospital Psiquiátrico,,19.32153147592321,-98.95949006080627,,,0,,0,
STOP_16916,,Avenida Sur Del Comercio - Camino Real,,19.235764174338737,-98.99484157562256,,,0,,0,
